UTC Date = 2020-01-17
$GPRMC,120426.00,A,1304.79686,N,05928.73483,W,0.113,,170120,,,D*6F
$GPGGA,120426.00,1304.79686,N,05928.73483,W,2,11,0.72,48.6,M,-43.4,M,,*52
$GPRMC,120427.00,A,1304.79684,N,05928.73490,W,0.132,,170120,,,D*6D
$GPGGA,120427.00,1304.79684,N,05928.73490,W,2,11,0.72,48.7,M,-43.4,M,,*52
$GPRMC,120428.00,A,1304.79685,N,05928.73493,W,0.096,,170120,,,D*6F
$GPGGA,120428.00,1304.79685,N,05928.73493,W,2,11,0.72,48.7,M,-43.4,M,,*5F
$GPRMC,120429.00,A,1304.79684,N,05928.73493,W,0.043,,170120,,,D*67
$GPGGA,120429.00,1304.79684,N,05928.73493,W,2,11,0.72,48.5,M,-43.4,M,,*5D
$GPRMC,120430.00,A,1304.79685,N,05928.73489,W,0.181,,170120,,,D*6A
$GPGGA,120430.00,1304.79685,N,05928.73489,W,2,11,0.72,48.5,M,-43.4,M,,*5F
$GPRMC,120431.00,A,1304.79684,N,05928.73483,W,0.030,,170120,,,D*6B
$GPGGA,120431.00,1304.79684,N,05928.73483,W,2,11,0.72,48.5,M,-43.4,M,,*55
$GPRMC,120432.00,A,1304.79682,N,05928.73480,W,0.053,,170120,,,D*68
$GPGGA,120432.00,1304.79682,N,05928.73480,W,2,11,0.72,48.4,M,-43.4,M,,*52
$GPRMC,120433.00,A,1304.79682,N,05928.73482,W,0.101,,170120,,,D*6D
$GPGGA,120433.00,1304.79682,N,05928.73482,W,2,11,0.72,48.6,M,-43.4,M,,*53
$GPRMC,120434.00,A,1304.79682,N,05928.73485,W,0.047,,170120,,,D*6E
$GPGGA,120434.00,1304.79682,N,05928.73485,W,2,11,0.72,48.5,M,-43.4,M,,*50
$GPRMC,120435.00,A,1304.79681,N,05928.73485,W,0.046,,170120,,,D*6D
$GPGGA,120435.00,1304.79681,N,05928.73485,W,2,11,0.72,48.3,M,-43.4,M,,*54
$GPRMC,120436.00,A,1304.79677,N,05928.73481,W,0.070,,170120,,,D*66
$GPGGA,120436.00,1304.79677,N,05928.73481,W,2,11,0.72,48.6,M,-43.4,M,,*5F
$GPRMC,120437.00,A,1304.79677,N,05928.73478,W,0.081,,170120,,,D*6F
$GPGGA,120437.00,1304.79677,N,05928.73478,W,2,11,0.72,48.8,M,-43.4,M,,*56
$GPRMC,120438.00,A,1304.79678,N,05928.73477,W,0.076,,170120,,,D*68
$GPGGA,120438.00,1304.79678,N,05928.73477,W,2,11,0.72,48.8,M,-43.4,M,,*59
$GPRMC,120439.00,A,1304.79673,N,05928.73481,W,0.081,,170120,,,D*63
$GPGGA,120439.00,1304.79673,N,05928.73481,W,2,11,0.72,48.8,M,-43.4,M,,*5A
$GPRMC,120440.00,A,1304.79670,N,05928.73484,W,0.073,,170120,,,D*66
$GPGGA,120440.00,1304.79670,N,05928.73484,W,2,11,0.72,48.8,M,-43.4,M,,*52
$GPRMC,120441.00,A,1304.79670,N,05928.73479,W,0.062,,170120,,,D*65
$GPGGA,120441.00,1304.79670,N,05928.73479,W,2,11,0.72,48.9,M,-43.4,M,,*50
$GPRMC,120442.00,A,1304.79673,N,05928.73474,W,0.132,,170120,,,D*6C
$GPGGA,120442.00,1304.79673,N,05928.73474,W,2,11,0.72,48.9,M,-43.4,M,,*5D
$GPRMC,120443.00,A,1304.79674,N,05928.73469,W,0.019,,170120,,,D*6E
$GPGGA,120443.00,1304.79674,N,05928.73469,W,2,11,0.72,48.9,M,-43.4,M,,*57
$GPRMC,120444.00,A,1304.79670,N,05928.73465,W,0.067,,170120,,,D*68
$GPGGA,120444.00,1304.79670,N,05928.73465,W,2,11,0.72,48.8,M,-43.4,M,,*59
$GPRMC,120445.00,A,1304.79667,N,05928.73461,W,0.056,,170120,,,D*69
$GPGGA,120445.00,1304.79667,N,05928.73461,W,2,11,0.72,49.0,M,-43.4,M,,*53
$GPRMC,120446.00,A,1304.79666,N,05928.73459,W,0.124,,170120,,,D*64
$GPGGA,120446.00,1304.79666,N,05928.73459,W,2,11,0.72,49.0,M,-43.4,M,,*5A
$GPRMC,120447.00,A,1304.79660,N,05928.73460,W,0.100,,170120,,,D*6F
$GPGGA,120447.00,1304.79660,N,05928.73460,W,2,11,0.72,48.5,M,-43.4,M,,*53
$GPRMC,120448.00,A,1304.79657,N,05928.73465,W,0.103,,170120,,,D*62
$GPGGA,120448.00,1304.79657,N,05928.73465,W,2,11,0.72,48.4,M,-43.4,M,,*5C
$GPRMC,120449.00,A,1304.79657,N,05928.73472,W,0.205,9.27,170120,,,D*72
$GPGGA,120449.00,1304.79657,N,05928.73472,W,2,11,0.72,48.6,M,-43.4,M,,*59
$GPRMC,120450.00,A,1304.79658,N,05928.73473,W,0.093,,170120,,,D*6B
$GPGGA,120450.00,1304.79658,N,05928.73473,W,2,11,0.72,48.3,M,-43.4,M,,*5A
$GPRMC,120451.00,A,1304.79660,N,05928.73475,W,0.076,,170120,,,D*6C
$GPGGA,120451.00,1304.79660,N,05928.73475,W,2,11,0.72,48.2,M,-43.4,M,,*57
$GPRMC,120452.00,A,1304.79663,N,05928.73474,W,0.071,,170120,,,D*6A
$GPGGA,120452.00,1304.79663,N,05928.73474,W,2,11,0.72,48.1,M,-43.4,M,,*55
$GPRMC,120453.00,A,1304.79666,N,05928.73466,W,0.044,,170120,,,D*6B
$GPGGA,120453.00,1304.79666,N,05928.73466,W,2,11,0.72,47.8,M,-43.4,M,,*54
$GPRMC,120454.00,A,1304.79666,N,05928.73464,W,0.104,,170120,,,D*6B
$GPGGA,120454.00,1304.79666,N,05928.73464,W,2,11,0.72,47.7,M,-43.4,M,,*5E
$GPRMC,120455.00,A,1304.79666,N,05928.73462,W,0.054,,170120,,,D*68
$GPGGA,120455.00,1304.79666,N,05928.73462,W,2,11,0.72,47.6,M,-43.4,M,,*58
$GPRMC,120456.00,A,1304.79666,N,05928.73464,W,0.097,,170120,,,D*62
$GPGGA,120456.00,1304.79666,N,05928.73464,W,2,11,0.72,47.6,M,-43.4,M,,*5D
$GPRMC,120457.00,A,1304.79667,N,05928.73462,W,0.058,,170120,,,D*67
$GPGGA,120457.00,1304.79667,N,05928.73462,W,2,11,0.72,47.9,M,-43.4,M,,*54
$GPRMC,120458.00,A,1304.79673,N,05928.73453,W,0.038,,170120,,,D*69
$GPGGA,120458.00,1304.79673,N,05928.73453,W,2,11,0.72,47.8,M,-43.4,M,,*5D
$GPRMC,120459.00,A,1304.79669,N,05928.73453,W,0.052,,170120,,,D*6F
$GPGGA,120459.00,1304.79669,N,05928.73453,W,2,11,0.72,48.1,M,-43.4,M,,*51
$GPRMC,120500.00,A,1304.79663,N,05928.73461,W,0.048,,170120,,,D*62
$GPGGA,120500.00,1304.79663,N,05928.73461,W,2,11,0.72,48.3,M,-43.4,M,,*55
$GPRMC,120501.00,A,1304.79666,N,05928.73461,W,0.064,,170120,,,D*68
$GPGGA,120501.00,1304.79666,N,05928.73461,W,2,11,0.72,48.4,M,-43.4,M,,*56
$GPRMC,120502.00,A,1304.79667,N,05928.73459,W,0.043,,170120,,,D*64
$GPGGA,120502.00,1304.79667,N,05928.73459,W,2,11,0.72,48.6,M,-43.4,M,,*5D
$GPRMC,120503.00,A,1304.79668,N,05928.73462,W,0.044,,170120,,,D*65
$GPGGA,120503.00,1304.79668,N,05928.73462,W,2,11,0.72,48.7,M,-43.4,M,,*5A
$GPRMC,120504.00,A,1304.79669,N,05928.73465,W,0.077,,170120,,,D*64
$GPGGA,120504.00,1304.79669,N,05928.73465,W,2,11,0.72,48.7,M,-43.4,M,,*5B
$GPRMC,120505.00,A,1304.79674,N,05928.73466,W,0.049,,170120,,,D*67
$GPGGA,120505.00,1304.79674,N,05928.73466,W,2,11,0.72,48.5,M,-43.4,M,,*57
$GPRMC,120506.00,A,1304.79678,N,05928.73477,W,0.042,,170120,,,D*63
$GPGGA,120506.00,1304.79678,N,05928.73477,W,2,11,0.72,48.3,M,-43.4,M,,*5E
$GPRMC,120507.00,A,1304.79682,N,05928.73473,W,0.037,,170120,,,D*61
$GPGGA,120507.00,1304.79682,N,05928.73473,W,2,11,0.72,48.1,M,-43.4,M,,*5C
$GPRMC,120508.00,A,1304.79683,N,05928.73465,W,0.103,,170120,,,D*6E
$GPGGA,120508.00,1304.79683,N,05928.73465,W,2,11,0.72,48.0,M,-43.4,M,,*54
$GPRMC,120509.00,A,1304.79688,N,05928.73467,W,0.134,,170120,,,D*62
$GPGGA,120509.00,1304.79688,N,05928.73467,W,2,11,0.72,47.8,M,-43.4,M,,*5B
$GPRMC,120510.00,A,1304.79693,N,05928.73466,W,0.043,,170120,,,D*60
$GPGGA,120510.00,1304.79693,N,05928.73466,W,2,11,0.72,47.8,M,-43.4,M,,*58
$GPRMC,120511.00,A,1304.79684,N,05928.73468,W,0.199,358.46,170120,,,D*7D
$GPGGA,120511.00,1304.79684,N,05928.73468,W,2,11,0.72,48.0,M,-43.4,M,,*56
$GPRMC,120512.00,A,1304.79681,N,05928.73466,W,0.076,,170120,,,D*67
$GPGGA,120512.00,1304.79681,N,05928.73466,W,2,11,0.72,48.3,M,-43.4,M,,*5D
$GPRMC,120513.00,A,1304.79678,N,05928.73469,W,0.090,,170120,,,D*67
$GPGGA,120513.00,1304.79678,N,05928.73469,W,2,11,0.72,48.4,M,-43.4,M,,*52
$GPRMC,120514.00,A,1304.79669,N,05928.73479,W,0.095,,170120,,,D*64
$GPGGA,120514.00,1304.79669,N,05928.73479,W,2,11,0.72,48.5,M,-43.4,M,,*55
$GPRMC,120515.00,A,1304.79659,N,05928.73476,W,0.063,,170120,,,D*60
$GPGGA,120515.00,1304.79659,N,05928.73476,W,2,11,0.72,48.5,M,-43.4,M,,*58
$GPRMC,120516.00,A,1304.79657,N,05928.73483,W,0.069,,170120,,,D*6D
$GPGGA,120516.00,1304.79657,N,05928.73483,W,2,11,0.72,48.5,M,-43.4,M,,*5F
$GPRMC,120517.00,A,1304.79659,N,05928.73482,W,0.069,,170120,,,D*63
$GPGGA,120517.00,1304.79659,N,05928.73482,W,2,11,0.72,48.6,M,-43.4,M,,*52
$GPRMC,120518.00,A,1304.79662,N,05928.73481,W,0.029,,170120,,,D*63
$GPGGA,120518.00,1304.79662,N,05928.73481,W,2,11,0.72,48.5,M,-43.4,M,,*55
$GPRMC,120519.00,A,1304.79670,N,05928.73480,W,0.072,,170120,,,D*6E
$GPGGA,120519.00,1304.79670,N,05928.73480,W,2,11,0.72,48.5,M,-43.4,M,,*56
$GPRMC,120520.00,A,1304.79675,N,05928.73478,W,0.035,,170120,,,D*65
$GPGGA,120520.00,1304.79675,N,05928.73478,W,2,11,0.72,48.4,M,-43.4,M,,*5F
$GPRMC,120521.00,A,1304.79672,N,05928.73478,W,0.057,,170120,,,D*67
$GPGGA,120521.00,1304.79672,N,05928.73478,W,2,11,0.72,48.5,M,-43.4,M,,*58
$GPRMC,120522.00,A,1304.79666,N,05928.73479,W,0.062,,170120,,,D*66
$GPGGA,120522.00,1304.79666,N,05928.73479,W,2,11,0.72,48.6,M,-43.4,M,,*5C
$GPRMC,120523.00,A,1304.79663,N,05928.73478,W,0.071,,170120,,,D*61
$GPGGA,120523.00,1304.79663,N,05928.73478,W,2,11,0.72,48.5,M,-43.4,M,,*5A
$GPRMC,120524.00,A,1304.79661,N,05928.73484,W,0.022,,170120,,,D*61
$GPGGA,120524.00,1304.79661,N,05928.73484,W,2,11,0.72,48.5,M,-43.4,M,,*5C
$GPRMC,120525.00,A,1304.79669,N,05928.73481,W,0.135,,170120,,,D*6A
$GPGGA,120525.00,1304.79669,N,05928.73481,W,2,11,0.72,48.7,M,-43.4,M,,*52
$GPRMC,120526.00,A,1304.79673,N,05928.73476,W,0.122,,170120,,,D*6C
$GPGGA,120526.00,1304.79673,N,05928.73476,W,2,11,0.72,48.9,M,-43.4,M,,*5C
$GPRMC,120527.00,A,1304.79672,N,05928.73472,W,0.026,,170120,,,D*6D
$GPGGA,120527.00,1304.79672,N,05928.73472,W,2,11,0.72,49.0,M,-43.4,M,,*50
$GPRMC,120528.00,A,1304.79666,N,05928.73471,W,0.094,,170120,,,D*6D
$GPGGA,120528.00,1304.79666,N,05928.73471,W,2,11,0.72,49.1,M,-43.4,M,,*58
$GPRMC,120529.00,A,1304.79662,N,05928.73470,W,0.085,,170120,,,D*69
$GPGGA,120529.00,1304.79662,N,05928.73470,W,2,11,0.72,49.0,M,-43.4,M,,*5D
$GPRMC,120530.00,A,1304.79660,N,05928.73472,W,0.108,,170120,,,D*65
$GPGGA,120530.00,1304.79660,N,05928.73472,W,2,11,0.72,49.0,M,-43.4,M,,*55
$GPRMC,120531.00,A,1304.79657,N,05928.73473,W,0.071,,170120,,,D*6E
$GPGGA,120531.00,1304.79657,N,05928.73473,W,2,11,0.72,49.1,M,-43.4,M,,*50
$GPRMC,120532.00,A,1304.79662,N,05928.73472,W,0.195,358.14,170120,,,D*74
$GPGGA,120532.00,1304.79662,N,05928.73472,W,2,11,0.72,49.2,M,-43.4,M,,*57
$GPRMC,120533.00,A,1304.79665,N,05928.73471,W,0.072,,170120,,,D*6C
$GPGGA,120533.00,1304.79665,N,05928.73471,W,2,11,0.72,49.0,M,-43.4,M,,*50
$GPRMC,120534.00,A,1304.79669,N,05928.73466,W,0.125,,170120,,,D*62
$GPGGA,120534.00,1304.79669,N,05928.73466,W,2,11,0.72,49.0,M,-43.4,M,,*5D
$GPRMC,120535.00,A,1304.79666,N,05928.73466,W,0.061,,170120,,,D*6D
$GPGGA,120535.00,1304.79666,N,05928.73466,W,2,11,0.72,48.9,M,-43.4,M,,*5B
$GPRMC,120536.00,A,1304.79663,N,05928.73473,W,0.059,,170120,,,D*64
$GPGGA,120536.00,1304.79663,N,05928.73473,W,2,11,0.72,48.9,M,-43.4,M,,*59
$GPRMC,120537.00,A,1304.79661,N,05928.73481,W,0.087,,170120,,,D*69
$GPGGA,120537.00,1304.79661,N,05928.73481,W,2,11,0.72,48.9,M,-43.4,M,,*57
$GPRMC,120538.00,A,1304.79665,N,05928.73481,W,0.055,,170120,,,D*6D
$GPGGA,120538.00,1304.79665,N,05928.73481,W,2,11,0.72,49.0,M,-43.4,M,,*54
$GPRMC,120539.00,A,1304.79667,N,05928.73477,W,0.212,358.33,170120,,,D*76
$GPGGA,120539.00,1304.79667,N,05928.73477,W,2,11,0.72,48.8,M,-43.4,M,,*57
$GPRMC,120540.00,A,1304.79674,N,05928.73475,W,0.098,,170120,,,D*68
$GPGGA,120540.00,1304.79674,N,05928.73475,W,2,11,0.72,48.6,M,-43.4,M,,*57
$GPRMC,120541.00,A,1304.79675,N,05928.73479,W,0.062,,170120,,,D*61
$GPGGA,120541.00,1304.79675,N,05928.73479,W,2,11,0.72,48.7,M,-43.4,M,,*5A
$GPRMC,120542.00,A,1304.79677,N,05928.73487,W,0.065,,170120,,,D*66
$GPGGA,120542.00,1304.79677,N,05928.73487,W,2,11,0.72,48.4,M,-43.4,M,,*59
$GPRMC,120543.00,A,1304.79674,N,05928.73491,W,0.076,,170120,,,D*61
$GPGGA,120543.00,1304.79674,N,05928.73491,W,2,11,0.72,48.5,M,-43.4,M,,*5D
$GPRMC,120544.00,A,1304.79671,N,05928.73492,W,0.035,,170120,,,D*67
$GPGGA,120544.00,1304.79671,N,05928.73492,W,2,11,0.72,48.6,M,-43.4,M,,*5F
$GPRMC,120545.00,A,1304.79671,N,05928.73491,W,0.028,,170120,,,D*69
$GPGGA,120545.00,1304.79671,N,05928.73491,W,2,11,0.72,48.7,M,-43.4,M,,*5C
$GPRMC,120546.00,A,1304.79682,N,05928.73488,W,0.092,,170120,,,D*6F
$GPGGA,120546.00,1304.79682,N,05928.73488,W,2,11,0.72,48.6,M,-43.4,M,,*5A
$GPRMC,120547.00,A,1304.79683,N,05928.73488,W,0.076,,170120,,,D*65
$GPGGA,120547.00,1304.79683,N,05928.73488,W,2,11,0.72,48.6,M,-43.4,M,,*5A
$GPRMC,120548.00,A,1304.79683,N,05928.73481,W,0.087,,170120,,,D*6D
$GPGGA,120548.00,1304.79683,N,05928.73481,W,2,11,0.72,48.4,M,-43.4,M,,*5E
$GPRMC,120549.00,A,1304.79681,N,05928.73479,W,0.085,,170120,,,D*6B
$GPGGA,120549.00,1304.79681,N,05928.73479,W,2,11,0.72,48.6,M,-43.4,M,,*58
$GPRMC,120550.00,A,1304.79676,N,05928.73481,W,0.030,,170120,,,D*62
$GPGGA,120550.00,1304.79676,N,05928.73481,W,2,11,0.72,48.8,M,-43.4,M,,*51
$GPRMC,120551.00,A,1304.79671,N,05928.73481,W,0.080,,170120,,,D*6F
$GPGGA,120551.00,1304.79671,N,05928.73481,W,2,11,0.72,49.1,M,-43.4,M,,*5F
$GPRMC,120552.00,A,1304.79667,N,05928.73483,W,0.151,,170120,,,D*64
$GPGGA,120552.00,1304.79667,N,05928.73483,W,2,11,0.72,49.4,M,-43.4,M,,*5C
$GPRMC,120553.00,A,1304.79664,N,05928.73484,W,0.081,,170120,,,D*6D
$GPGGA,120553.00,1304.79664,N,05928.73484,W,2,11,0.72,49.6,M,-43.4,M,,*5B
$GPRMC,120554.00,A,1304.79661,N,05928.73483,W,0.045,,170120,,,D*60
$GPGGA,120554.00,1304.79661,N,05928.73483,W,2,11,0.72,49.6,M,-43.4,M,,*5E
$GPRMC,120555.00,A,1304.79658,N,05928.73482,W,0.096,,170120,,,D*64
$GPGGA,120555.00,1304.79658,N,05928.73482,W,2,11,0.72,49.5,M,-43.4,M,,*57
$GPRMC,120556.00,A,1304.79656,N,05928.73478,W,0.038,,170120,,,D*68
$GPGGA,120556.00,1304.79656,N,05928.73478,W,2,11,0.72,49.4,M,-43.4,M,,*5E
$GPRMC,120557.00,A,1304.79663,N,05928.73481,W,0.118,,170120,,,D*6A
$GPGGA,120557.00,1304.79663,N,05928.73481,W,2,11,0.72,49.5,M,-43.4,M,,*5E
$GPRMC,120558.00,A,1304.79671,N,05928.73486,W,0.032,,170120,,,D*68
$GPGGA,120558.00,1304.79671,N,05928.73486,W,2,11,0.72,49.5,M,-43.4,M,,*55
$GPRMC,120559.00,A,1304.79673,N,05928.73486,W,0.061,,170120,,,D*6D
$GPGGA,120559.00,1304.79673,N,05928.73486,W,2,11,0.72,49.3,M,-43.4,M,,*50
$GPRMC,120600.00,A,1304.79677,N,05928.73487,W,0.061,,170120,,,D*67
$GPGGA,120600.00,1304.79677,N,05928.73487,W,2,11,0.72,49.3,M,-43.4,M,,*5A
$GPRMC,120601.00,A,1304.79684,N,05928.73481,W,0.070,,170120,,,D*6C
$GPGGA,120601.00,1304.79684,N,05928.73481,W,2,11,0.72,49.3,M,-43.4,M,,*51
$GPRMC,120602.00,A,1304.79688,N,05928.73474,W,0.060,,170120,,,D*68
$GPGGA,120602.00,1304.79688,N,05928.73474,W,2,11,0.72,49.3,M,-43.4,M,,*54
$GPRMC,120603.00,A,1304.79685,N,05928.73475,W,0.070,,170120,,,D*64
$GPGGA,120603.00,1304.79685,N,05928.73475,W,2,11,0.72,49.3,M,-43.4,M,,*59
$GPRMC,120604.00,A,1304.79682,N,05928.73480,W,0.067,,170120,,,D*68
$GPGGA,120604.00,1304.79682,N,05928.73480,W,2,11,0.72,49.4,M,-43.4,M,,*54
$GPRMC,120605.00,A,1304.79679,N,05928.73482,W,0.020,,170120,,,D*6C
$GPGGA,120605.00,1304.79679,N,05928.73482,W,2,11,0.72,49.5,M,-43.4,M,,*52
$GPRMC,120606.00,A,1304.79680,N,05928.73483,W,0.071,,170120,,,D*6C
$GPGGA,120606.00,1304.79680,N,05928.73483,W,2,11,0.72,49.6,M,-43.4,M,,*55
$GPRMC,120607.00,A,1304.79686,N,05928.73484,W,0.121,,170120,,,D*68
$GPGGA,120607.00,1304.79686,N,05928.73484,W,2,11,0.72,49.4,M,-43.4,M,,*57
$GPRMC,120608.00,A,1304.79685,N,05928.73481,W,0.056,,170120,,,D*60
$GPGGA,120608.00,1304.79685,N,05928.73481,W,2,11,0.72,49.6,M,-43.4,M,,*5C
$GPRMC,120609.00,A,1304.79692,N,05928.73486,W,0.032,,170120,,,D*62
$GPGGA,120609.00,1304.79692,N,05928.73486,W,2,11,0.72,49.6,M,-43.4,M,,*5C
$GPRMC,120610.00,A,1304.79691,N,05928.73489,W,0.022,,170120,,,D*67
$GPGGA,120610.00,1304.79691,N,05928.73489,W,2,11,0.72,49.3,M,-43.4,M,,*5D
$GPRMC,120611.00,A,1304.79685,N,05928.73494,W,0.037,,170120,,,D*6B
$GPGGA,120611.00,1304.79685,N,05928.73494,W,2,11,0.72,49.4,M,-43.4,M,,*52
$GPRMC,120612.00,A,1304.79684,N,05928.73489,W,0.027,,170120,,,D*64
$GPGGA,120612.00,1304.79684,N,05928.73489,W,2,11,0.72,49.5,M,-43.4,M,,*5D
$GPRMC,120613.00,A,1304.79684,N,05928.73486,W,0.081,,170120,,,D*66
$GPGGA,120613.00,1304.79684,N,05928.73486,W,2,11,0.72,49.6,M,-43.4,M,,*50
$GPRMC,120614.00,A,1304.79689,N,05928.73485,W,0.032,,170120,,,D*67
$GPGGA,120614.00,1304.79689,N,05928.73485,W,2,11,0.72,49.6,M,-43.4,M,,*59
$GPRMC,120615.00,A,1304.79687,N,05928.73481,W,0.180,,170120,,,D*64
$GPGGA,120615.00,1304.79687,N,05928.73481,W,2,11,0.72,49.6,M,-43.4,M,,*52
$GPRMC,120616.00,A,1304.79686,N,05928.73485,W,0.006,,170120,,,D*6D
$GPGGA,120616.00,1304.79686,N,05928.73485,W,2,11,0.72,49.4,M,-43.4,M,,*56
$GPRMC,120617.00,A,1304.79684,N,05928.73488,W,0.070,,170120,,,D*62
$GPGGA,120617.00,1304.79684,N,05928.73488,W,2,11,0.72,49.3,M,-43.4,M,,*5F
$GPRMC,120618.00,A,1304.79683,N,05928.73493,W,0.042,,170120,,,D*61
$GPGGA,120618.00,1304.79683,N,05928.73493,W,2,11,0.72,49.3,M,-43.4,M,,*5D
$GPRMC,120619.00,A,1304.79687,N,05928.73494,W,0.069,,170120,,,D*6A
$GPGGA,120619.00,1304.79687,N,05928.73494,W,2,11,0.72,49.3,M,-43.4,M,,*5F
$GPRMC,120620.00,A,1304.79695,N,05928.73490,W,0.068,,170120,,,D*66
$GPGGA,120620.00,1304.79695,N,05928.73490,W,2,11,0.72,49.2,M,-43.4,M,,*53
$GPRMC,120621.00,A,1304.79703,N,05928.73487,W,0.096,,170120,,,D*6E
$GPGGA,120621.00,1304.79703,N,05928.73487,W,2,11,0.72,49.0,M,-43.4,M,,*58
$GPRMC,120622.00,A,1304.79706,N,05928.73481,W,0.108,,170120,,,D*68
$GPGGA,120622.00,1304.79706,N,05928.73481,W,2,11,0.72,48.8,M,-43.4,M,,*51
$GPRMC,120623.00,A,1304.79702,N,05928.73479,W,0.097,,170120,,,D*6D
$GPGGA,120623.00,1304.79702,N,05928.73479,W,2,11,0.72,48.7,M,-43.4,M,,*5C
$GPRMC,120624.00,A,1304.79693,N,05928.73483,W,0.006,,170120,,,D*6E
$GPGGA,120624.00,1304.79693,N,05928.73483,W,2,11,0.72,48.7,M,-43.4,M,,*57
$GPRMC,120625.00,A,1304.79688,N,05928.73485,W,0.037,,170120,,,D*61
$GPGGA,120625.00,1304.79688,N,05928.73485,W,2,11,0.72,48.8,M,-43.4,M,,*55
$GPRMC,120626.00,A,1304.79690,N,05928.73484,W,0.063,,170120,,,D*6B
$GPGGA,120626.00,1304.79690,N,05928.73484,W,2,11,0.72,48.7,M,-43.4,M,,*51
$GPRMC,120627.00,A,1304.79692,N,05928.73479,W,0.092,,170120,,,D*64
$GPGGA,120627.00,1304.79692,N,05928.73479,W,2,11,0.72,48.8,M,-43.4,M,,*5F
$GPRMC,120628.00,A,1304.79693,N,05928.73478,W,0.164,,170120,,,D*63
$GPGGA,120628.00,1304.79693,N,05928.73478,W,2,11,0.72,48.7,M,-43.4,M,,*5F
$GPRMC,120629.00,A,1304.79698,N,05928.73473,W,0.214,354.54,170120,,,D*7B
$GPGGA,120629.00,1304.79698,N,05928.73473,W,2,11,0.72,48.5,M,-43.4,M,,*5C
$GPRMC,120630.00,A,1304.79701,N,05928.73473,W,0.123,,170120,,,D*68
$GPGGA,120630.00,1304.79701,N,05928.73473,W,2,11,0.72,48.3,M,-43.4,M,,*53
$GPRMC,120631.00,A,1304.79696,N,05928.73472,W,0.057,,170120,,,D*65
$GPGGA,120631.00,1304.79696,N,05928.73472,W,2,11,0.72,48.5,M,-43.4,M,,*5A
$GPRMC,120632.00,A,1304.79695,N,05928.73474,W,0.054,,170120,,,D*60
$GPGGA,120632.00,1304.79695,N,05928.73474,W,2,11,0.72,48.5,M,-43.4,M,,*5C
$GPRMC,120633.00,A,1304.79695,N,05928.73470,W,0.099,,170120,,,D*64
$GPGGA,120633.00,1304.79695,N,05928.73470,W,2,11,0.72,48.4,M,-43.4,M,,*58
$GPRMC,120634.00,A,1304.79697,N,05928.73468,W,0.085,,170120,,,D*65
$GPGGA,120634.00,1304.79697,N,05928.73468,W,2,11,0.72,48.3,M,-43.4,M,,*53
$GPRMC,120635.00,A,1304.79700,N,05928.73468,W,0.040,,170120,,,D*62
$GPGGA,120635.00,1304.79700,N,05928.73468,W,2,11,0.72,48.5,M,-43.4,M,,*5B
$GPRMC,120636.00,A,1304.79700,N,05928.73462,W,0.093,,170120,,,D*65
$GPGGA,120636.00,1304.79700,N,05928.73462,W,2,11,0.72,48.7,M,-43.4,M,,*50
$GPRMC,120637.00,A,1304.79698,N,05928.73462,W,0.057,,170120,,,D*6C
$GPGGA,120637.00,1304.79698,N,05928.73462,W,2,11,0.72,48.8,M,-43.4,M,,*5E
$GPRMC,120638.00,A,1304.79697,N,05928.73467,W,0.044,,170120,,,D*6B
$GPGGA,120638.00,1304.79697,N,05928.73467,W,2,11,0.72,48.6,M,-43.4,M,,*55
$GPRMC,120639.00,A,1304.79692,N,05928.73467,W,0.091,,170120,,,D*67
$GPGGA,120639.00,1304.79692,N,05928.73467,W,2,11,0.72,48.7,M,-43.4,M,,*50
$GPRMC,120640.00,A,1304.79687,N,05928.73467,W,0.071,,170120,,,D*63
$GPGGA,120640.00,1304.79687,N,05928.73467,W,2,11,0.72,48.8,M,-43.4,M,,*55
$GPRMC,120641.00,A,1304.79691,N,05928.73465,W,0.073,,170120,,,D*65
$GPGGA,120641.00,1304.79691,N,05928.73465,W,2,11,0.72,48.8,M,-43.4,M,,*51
$GPRMC,120642.00,A,1304.79693,N,05928.73468,W,0.025,,170120,,,D*6A
$GPGGA,120642.00,1304.79693,N,05928.73468,W,2,11,0.72,48.9,M,-43.4,M,,*5C
$GPRMC,120643.00,A,1304.79693,N,05928.73474,W,0.119,,170120,,,D*68
$GPGGA,120643.00,1304.79693,N,05928.73474,W,2,11,0.72,49.0,M,-43.4,M,,*58
$GPRMC,120644.00,A,1304.79693,N,05928.73477,W,0.040,,170120,,,D*61
$GPGGA,120644.00,1304.79693,N,05928.73477,W,2,11,0.72,48.8,M,-43.4,M,,*55
$GPRMC,120645.00,A,1304.79698,N,05928.73475,W,0.021,,170120,,,D*6E
$GPGGA,120645.00,1304.79698,N,05928.73475,W,2,11,0.72,48.6,M,-43.4,M,,*53
$GPRMC,120646.00,A,1304.79699,N,05928.73472,W,0.128,,170120,,,D*63
$GPGGA,120646.00,1304.79699,N,05928.73472,W,2,11,0.72,48.7,M,-43.4,M,,*57
$GPRMC,120647.00,A,1304.79700,N,05928.73467,W,0.023,,170120,,,D*6D
$GPGGA,120647.00,1304.79700,N,05928.73467,W,2,11,0.72,48.8,M,-43.4,M,,*5C
$GPRMC,120648.00,A,1304.79697,N,05928.73466,W,0.102,,170120,,,D*6E
$GPGGA,120648.00,1304.79697,N,05928.73466,W,2,11,0.72,48.6,M,-43.4,M,,*53
$GPRMC,120649.00,A,1304.79693,N,05928.73465,W,0.105,,170120,,,D*6F
$GPGGA,120649.00,1304.79693,N,05928.73465,W,2,11,0.72,48.4,M,-43.4,M,,*57
$GPRMC,120650.00,A,1304.79695,N,05928.73463,W,0.075,,170120,,,D*61
$GPGGA,120650.00,1304.79695,N,05928.73463,W,2,11,0.72,48.1,M,-43.4,M,,*5A
$GPRMC,120651.00,A,1304.79693,N,05928.73458,W,0.025,,170120,,,D*6B
$GPGGA,120651.00,1304.79693,N,05928.73458,W,2,11,0.72,48.0,M,-43.4,M,,*54
$GPRMC,120652.00,A,1304.79691,N,05928.73453,W,0.129,,170120,,,D*6C
$GPGGA,120652.00,1304.79691,N,05928.73453,W,2,11,0.72,47.9,M,-43.4,M,,*58
$GPRMC,120653.00,A,1304.79690,N,05928.73454,W,0.043,,170120,,,D*66
$GPGGA,120653.00,1304.79690,N,05928.73454,W,2,11,0.72,48.0,M,-43.4,M,,*59
$GPRMC,120654.00,A,1304.79688,N,05928.73457,W,0.113,,170120,,,D*6F
$GPGGA,120654.00,1304.79688,N,05928.73457,W,2,11,0.72,48.0,M,-43.4,M,,*54
$GPRMC,120655.00,A,1304.79684,N,05928.73458,W,0.071,,170120,,,D*68
$GPGGA,120655.00,1304.79684,N,05928.73458,W,2,11,0.72,48.3,M,-43.4,M,,*55
$GPRMC,120656.00,A,1304.79684,N,05928.73459,W,0.093,,170120,,,D*66
$GPGGA,120656.00,1304.79684,N,05928.73459,W,2,11,0.72,48.4,M,-43.4,M,,*50
$GPRMC,120657.00,A,1304.79691,N,05928.73454,W,0.114,,170120,,,D*60
$GPGGA,120657.00,1304.79691,N,05928.73454,W,2,11,0.72,48.3,M,-43.4,M,,*5F
$GPRMC,120658.00,A,1304.79696,N,05928.73448,W,0.066,,170120,,,D*61
$GPGGA,120658.00,1304.79696,N,05928.73448,W,2,11,0.72,48.1,M,-43.4,M,,*58
$GPRMC,120659.00,A,1304.79701,N,05928.73450,W,0.057,,170120,,,D*64
$GPGGA,120659.00,1304.79701,N,05928.73450,W,2,11,0.72,48.0,M,-43.4,M,,*5E
$GPRMC,120700.00,A,1304.79707,N,05928.73457,W,0.052,,170120,,,D*6D
$GPGGA,120700.00,1304.79707,N,05928.73457,W,2,11,0.72,47.8,M,-43.4,M,,*55
$GPRMC,120701.00,A,1304.79714,N,05928.73460,W,0.054,,170120,,,D*6C
$GPGGA,120701.00,1304.79714,N,05928.73460,W,2,11,0.72,47.6,M,-43.4,M,,*5C
$GPRMC,120702.00,A,1304.79715,N,05928.73460,W,0.027,,170120,,,D*6A
$GPGGA,120702.00,1304.79715,N,05928.73460,W,2,11,0.72,47.6,M,-43.4,M,,*5E
$GPRMC,120703.00,A,1304.79707,N,05928.73465,W,0.079,,170120,,,D*66
$GPGGA,120703.00,1304.79707,N,05928.73465,W,2,11,0.72,47.6,M,-43.4,M,,*59
$GPRMC,120704.00,A,1304.79705,N,05928.73463,W,0.082,,170120,,,D*61
$GPGGA,120704.00,1304.79705,N,05928.73463,W,2,11,0.72,47.4,M,-43.4,M,,*58
$GPRMC,120705.00,A,1304.79706,N,05928.73457,W,0.049,,170120,,,D*63
$GPGGA,120705.00,1304.79706,N,05928.73457,W,2,11,0.72,47.5,M,-43.4,M,,*5C
$GPRMC,120706.00,A,1304.79707,N,05928.73455,W,0.072,,170120,,,D*6B
$GPGGA,120706.00,1304.79707,N,05928.73455,W,2,11,0.72,47.6,M,-43.4,M,,*5F
$GPRMC,120707.00,A,1304.79703,N,05928.73460,W,0.024,,170120,,,D*6B
$GPGGA,120707.00,1304.79703,N,05928.73460,W,2,11,0.72,47.5,M,-43.4,M,,*5F
$GPRMC,120708.00,A,1304.79698,N,05928.73465,W,0.093,,170120,,,D*6E
$GPGGA,120708.00,1304.79698,N,05928.73465,W,2,11,0.72,47.6,M,-43.4,M,,*55
$GPRMC,120709.00,A,1304.79700,N,05928.73463,W,0.078,,170120,,,D*6C
$GPGGA,120709.00,1304.79700,N,05928.73463,W,2,11,0.72,47.5,M,-43.4,M,,*51
$GPRMC,120710.00,A,1304.79704,N,05928.73461,W,0.050,,170120,,,D*68
$GPGGA,120710.00,1304.79704,N,05928.73461,W,2,11,0.72,47.6,M,-43.4,M,,*5C
$GPRMC,120711.00,A,1304.79706,N,05928.73458,W,0.099,,170120,,,D*64
$GPGGA,120711.00,1304.79706,N,05928.73458,W,2,11,0.72,47.5,M,-43.4,M,,*56
$GPRMC,120712.00,A,1304.79707,N,05928.73458,W,0.067,,170120,,,D*67
$GPGGA,120712.00,1304.79707,N,05928.73458,W,2,11,0.72,47.7,M,-43.4,M,,*56
$GPRMC,120713.00,A,1304.79710,N,05928.73459,W,0.034,,170120,,,D*67
$GPGGA,120713.00,1304.79710,N,05928.73459,W,2,11,0.72,47.6,M,-43.4,M,,*51
$GPRMC,120714.00,A,1304.79714,N,05928.73462,W,0.037,,170120,,,D*6F
$GPGGA,120714.00,1304.79714,N,05928.73462,W,2,11,0.72,47.8,M,-43.4,M,,*54
$GPRMC,120715.00,A,1304.79711,N,05928.73465,W,0.028,,170120,,,D*62
$GPGGA,120715.00,1304.79711,N,05928.73465,W,2,11,0.72,47.7,M,-43.4,M,,*58
$GPRMC,120716.00,A,1304.79708,N,05928.73467,W,0.099,,170120,,,D*61
$GPGGA,120716.00,1304.79708,N,05928.73467,W,2,11,0.72,47.7,M,-43.4,M,,*51
$GPRMC,120717.00,A,1304.79709,N,05928.73464,W,0.067,,170120,,,D*63
$GPGGA,120717.00,1304.79709,N,05928.73464,W,2,11,0.72,47.7,M,-43.4,M,,*52
$GPRMC,120718.00,A,1304.79704,N,05928.73460,W,0.011,,170120,,,D*64
$GPGGA,120718.00,1304.79704,N,05928.73460,W,2,11,0.72,47.5,M,-43.4,M,,*56
$GPRMC,120719.00,A,1304.79700,N,05928.73461,W,0.048,,170120,,,D*6C
$GPGGA,120719.00,1304.79700,N,05928.73461,W,2,11,0.72,47.6,M,-43.4,M,,*51
$GPRMC,120720.00,A,1304.79701,N,05928.73461,W,0.016,,170120,,,D*6C
$GPGGA,120720.00,1304.79701,N,05928.73461,W,2,11,0.72,47.6,M,-43.4,M,,*5A
$GPRMC,120721.00,A,1304.79702,N,05928.73455,W,0.017,,170120,,,D*68
$GPGGA,120721.00,1304.79702,N,05928.73455,W,2,11,0.72,47.8,M,-43.4,M,,*51
$GPRMC,120722.00,A,1304.79703,N,05928.73451,W,0.039,,170120,,,D*62
$GPGGA,120722.00,1304.79703,N,05928.73451,W,2,11,0.72,47.8,M,-43.4,M,,*57
$GPRMC,120723.00,A,1304.79702,N,05928.73454,W,0.031,,170120,,,D*6F
$GPGGA,120723.00,1304.79702,N,05928.73454,W,2,11,0.72,47.9,M,-43.4,M,,*53
$GPRMC,120724.00,A,1304.79704,N,05928.73452,W,0.046,,170120,,,D*68
$GPGGA,120724.00,1304.79704,N,05928.73452,W,2,11,0.72,47.9,M,-43.4,M,,*54
$GPRMC,120725.00,A,1304.79707,N,05928.73446,W,0.076,,170120,,,D*6C
$GPGGA,120725.00,1304.79707,N,05928.73446,W,2,11,0.72,48.1,M,-43.4,M,,*54
$GPRMC,120726.00,A,1304.79709,N,05928.73442,W,0.095,,170120,,,D*68
$GPGGA,120726.00,1304.79709,N,05928.73442,W,2,11,0.72,48.3,M,-43.4,M,,*5F
$GPRMC,120727.00,A,1304.79705,N,05928.73441,W,0.045,,170120,,,D*6B
$GPGGA,120727.00,1304.79705,N,05928.73441,W,2,11,0.72,48.0,M,-43.4,M,,*52
$GPRMC,120728.00,A,1304.79703,N,05928.73442,W,0.040,,170120,,,D*64
$GPGGA,120728.00,1304.79703,N,05928.73442,W,2,11,0.72,47.9,M,-43.4,M,,*5E
$GPRMC,120729.00,A,1304.79696,N,05928.73441,W,0.074,,170120,,,D*6C
$GPGGA,120729.00,1304.79696,N,05928.73441,W,2,11,0.72,47.8,M,-43.4,M,,*50
$GPRMC,120730.00,A,1304.79693,N,05928.73443,W,0.044,,170120,,,D*60
$GPGGA,120730.00,1304.79693,N,05928.73443,W,2,11,0.72,47.7,M,-43.4,M,,*50
$GPRMC,120731.00,A,1304.79691,N,05928.73442,W,0.065,,170120,,,D*61
$GPGGA,120731.00,1304.79691,N,05928.73442,W,2,11,0.72,47.5,M,-43.4,M,,*50
$GPRMC,120732.00,A,1304.79692,N,05928.73439,W,0.103,,170120,,,D*6C
$GPGGA,120732.00,1304.79692,N,05928.73439,W,2,11,0.72,47.2,M,-43.4,M,,*5B
$GPRMC,120733.00,A,1304.79693,N,05928.73438,W,0.077,,170120,,,D*6F
$GPGGA,120733.00,1304.79693,N,05928.73438,W,2,11,0.72,47.2,M,-43.4,M,,*5A
$GPRMC,120734.00,A,1304.79693,N,05928.73435,W,0.044,,170120,,,D*65
$GPGGA,120734.00,1304.79693,N,05928.73435,W,2,11,0.72,47.2,M,-43.4,M,,*50
$GPRMC,120735.00,A,1304.79691,N,05928.73436,W,0.071,,170120,,,D*63
$GPGGA,120735.00,1304.79691,N,05928.73436,W,2,11,0.72,47.3,M,-43.4,M,,*51
$GPRMC,120736.00,A,1304.79692,N,05928.73435,W,0.050,,170120,,,D*63
$GPGGA,120736.00,1304.79692,N,05928.73435,W,2,11,0.72,47.5,M,-43.4,M,,*54
$GPRMC,120737.00,A,1304.79695,N,05928.73440,W,0.078,,170120,,,D*6D
$GPGGA,120737.00,1304.79695,N,05928.73440,W,2,11,0.72,47.6,M,-43.4,M,,*53
$GPRMC,120738.00,A,1304.79695,N,05928.73446,W,0.110,,170120,,,D*6B
$GPGGA,120738.00,1304.79695,N,05928.73446,W,2,11,0.72,47.5,M,-43.4,M,,*59
$GPRMC,120739.00,A,1304.79694,N,05928.73451,W,0.061,,170120,,,D*6A
$GPGGA,120739.00,1304.79694,N,05928.73451,W,2,11,0.72,47.6,M,-43.4,M,,*5C
$GPRMC,120740.00,A,1304.79695,N,05928.73456,W,0.063,,170120,,,D*60
$GPGGA,120740.00,1304.79695,N,05928.73456,W,2,11,0.72,47.6,M,-43.4,M,,*54
$GPRMC,120741.00,A,1304.79694,N,05928.73456,W,0.027,,170120,,,D*60
$GPGGA,120741.00,1304.79694,N,05928.73456,W,2,11,0.72,47.5,M,-43.4,M,,*57
$GPRMC,120742.00,A,1304.79690,N,05928.73455,W,0.052,,170120,,,D*66
$GPGGA,120742.00,1304.79690,N,05928.73455,W,2,11,0.72,47.5,M,-43.4,M,,*53
$GPRMC,120743.00,A,1304.79685,N,05928.73456,W,0.097,,170120,,,D*69
$GPGGA,120743.00,1304.79685,N,05928.73456,W,2,11,0.72,47.6,M,-43.4,M,,*56
$GPRMC,120744.00,A,1304.79684,N,05928.73456,W,0.024,,170120,,,D*67
$GPGGA,120744.00,1304.79684,N,05928.73456,W,2,11,0.72,47.4,M,-43.4,M,,*52
$GPRMC,120745.00,A,1304.79686,N,05928.73455,W,0.076,,170120,,,D*60
$GPGGA,120745.00,1304.79686,N,05928.73455,W,2,11,0.72,47.6,M,-43.4,M,,*50
$GPRMC,120746.00,A,1304.79689,N,05928.73452,W,0.065,,170120,,,D*69
$GPGGA,120746.00,1304.79689,N,05928.73452,W,2,11,0.72,47.8,M,-43.4,M,,*55
$GPRMC,120747.00,A,1304.79689,N,05928.73448,W,0.078,,170120,,,D*6F
$GPGGA,120747.00,1304.79689,N,05928.73448,W,2,11,0.72,47.9,M,-43.4,M,,*5E
$GPRMC,120748.00,A,1304.79694,N,05928.73444,W,0.070,,170120,,,D*68
$GPGGA,120748.00,1304.79694,N,05928.73444,W,2,11,0.72,47.8,M,-43.4,M,,*50
$GPRMC,120749.00,A,1304.79701,N,05928.73446,W,0.056,,170120,,,D*62
$GPGGA,120749.00,1304.79701,N,05928.73446,W,2,11,0.72,47.9,M,-43.4,M,,*5F
$GPRMC,120750.00,A,1304.79706,N,05928.73445,W,0.019,,170120,,,D*65
$GPGGA,120750.00,1304.79706,N,05928.73445,W,2,11,0.72,48.0,M,-43.4,M,,*55
$GPRMC,120751.00,A,1304.79699,N,05928.73446,W,0.043,,170120,,,D*6F
$GPGGA,120751.00,1304.79699,N,05928.73446,W,2,11,0.72,47.9,M,-43.4,M,,*56
$GPRMC,120752.00,A,1304.79695,N,05928.73449,W,0.060,,170120,,,D*6E
$GPGGA,120752.00,1304.79695,N,05928.73449,W,2,11,0.72,47.9,M,-43.4,M,,*56
$GPRMC,120753.00,A,1304.79693,N,05928.73449,W,0.040,,170120,,,D*6B
$GPGGA,120753.00,1304.79693,N,05928.73449,W,2,11,0.72,47.8,M,-43.4,M,,*50
$GPRMC,120754.00,A,1304.79693,N,05928.73448,W,0.017,,170120,,,D*6F
$GPGGA,120754.00,1304.79693,N,05928.73448,W,2,11,0.72,47.7,M,-43.4,M,,*59
$GPRMC,120755.00,A,1304.79688,N,05928.73443,W,0.086,,170120,,,D*67
$GPGGA,120755.00,1304.79688,N,05928.73443,W,2,11,0.72,47.7,M,-43.4,M,,*59
$GPRMC,120756.00,A,1304.79684,N,05928.73443,W,0.040,,170120,,,D*62
$GPGGA,120756.00,1304.79684,N,05928.73443,W,2,11,0.72,47.7,M,-43.4,M,,*56
$GPRMC,120757.00,A,1304.79684,N,05928.73444,W,0.067,,170120,,,D*61
$GPGGA,120757.00,1304.79684,N,05928.73444,W,2,11,0.72,47.8,M,-43.4,M,,*5F
$GPRMC,120758.00,A,1304.79692,N,05928.73443,W,0.070,,170120,,,D*68
$GPGGA,120758.00,1304.79692,N,05928.73443,W,2,11,0.72,47.9,M,-43.4,M,,*51
$GPRMC,120759.00,A,1304.79694,N,05928.73445,W,0.071,,170120,,,D*68
$GPGGA,120759.00,1304.79694,N,05928.73445,W,2,11,0.72,47.9,M,-43.4,M,,*50
$GPRMC,120800.00,A,1304.79689,N,05928.73447,W,0.101,,170120,,,D*63
$GPGGA,120800.00,1304.79689,N,05928.73447,W,2,11,0.72,48.0,M,-43.4,M,,*5B
$GPRMC,120801.00,A,1304.79685,N,05928.73452,W,0.070,,170120,,,D*6D
$GPGGA,120801.00,1304.79685,N,05928.73452,W,2,11,0.72,48.1,M,-43.4,M,,*53
$GPRMC,120802.00,A,1304.79686,N,05928.73451,W,0.088,,170120,,,D*69
$GPGGA,120802.00,1304.79686,N,05928.73451,W,2,11,0.72,48.1,M,-43.4,M,,*50
$GPRMC,120803.00,A,1304.79684,N,05928.73449,W,0.095,,170120,,,D*6F
$GPGGA,120803.00,1304.79684,N,05928.73449,W,2,11,0.72,48.1,M,-43.4,M,,*5A
$GPRMC,120804.00,A,1304.79676,N,05928.73444,W,0.098,,170120,,,D*65
$GPGGA,120804.00,1304.79676,N,05928.73444,W,2,11,0.72,48.1,M,-43.4,M,,*5D
$GPRMC,120805.00,A,1304.79674,N,05928.73442,W,0.012,,170120,,,D*62
$GPGGA,120805.00,1304.79674,N,05928.73442,W,2,11,0.72,48.0,M,-43.4,M,,*59
$GPRMC,120806.00,A,1304.79670,N,05928.73446,W,0.006,,170120,,,D*64
$GPGGA,120806.00,1304.79670,N,05928.73446,W,2,11,0.72,47.8,M,-43.4,M,,*5D
$GPRMC,120807.00,A,1304.79666,N,05928.73450,W,0.045,,170120,,,D*62
$GPGGA,120807.00,1304.79666,N,05928.73450,W,2,11,0.72,47.7,M,-43.4,M,,*53
$GPRMC,120808.00,A,1304.79663,N,05928.73449,W,0.031,,170120,,,D*63
$GPGGA,120808.00,1304.79663,N,05928.73449,W,2,11,0.72,47.5,M,-43.4,M,,*53
$GPRMC,120809.00,A,1304.79662,N,05928.73446,W,0.141,,170120,,,D*6A
$GPGGA,120809.00,1304.79662,N,05928.73446,W,2,11,0.72,47.9,M,-43.4,M,,*50
$GPRMC,120810.00,A,1304.79666,N,05928.73436,W,0.098,,170120,,,D*64
$GPGGA,120810.00,1304.79666,N,05928.73436,W,2,11,0.72,47.8,M,-43.4,M,,*5A
$GPRMC,120811.00,A,1304.79667,N,05928.73434,W,0.065,,170120,,,D*64
$GPGGA,120811.00,1304.79667,N,05928.73434,W,2,11,0.72,47.8,M,-43.4,M,,*58
$GPRMC,120812.00,A,1304.79665,N,05928.73432,W,0.118,,170120,,,D*68
$GPGGA,120812.00,1304.79665,N,05928.73432,W,2,11,0.72,47.9,M,-43.4,M,,*5E
$GPRMC,120813.00,A,1304.79664,N,05928.73431,W,0.052,,170120,,,D*64
$GPGGA,120813.00,1304.79664,N,05928.73431,W,2,11,0.72,47.8,M,-43.4,M,,*5C
$GPRMC,120814.00,A,1304.79665,N,05928.73433,W,0.024,,170120,,,D*61
$GPGGA,120814.00,1304.79665,N,05928.73433,W,2,11,0.72,47.9,M,-43.4,M,,*59
$GPRMC,120815.00,A,1304.79666,N,05928.73439,W,0.138,,170120,,,D*65
$GPGGA,120815.00,1304.79666,N,05928.73439,W,2,11,0.72,48.1,M,-43.4,M,,*56
$GPRMC,120816.00,A,1304.79664,N,05928.73437,W,0.070,,170120,,,D*67
$GPGGA,120816.00,1304.79664,N,05928.73437,W,2,11,0.72,47.9,M,-43.4,M,,*5E
$GPRMC,120817.00,A,1304.79664,N,05928.73437,W,0.070,,170120,,,D*66
$GPGGA,120817.00,1304.79664,N,05928.73437,W,2,11,0.72,47.7,M,-43.4,M,,*51
$GPRMC,120818.00,A,1304.79663,N,05928.73441,W,0.016,,170120,,,D*6F
$GPGGA,120818.00,1304.79663,N,05928.73441,W,2,11,0.72,47.6,M,-43.4,M,,*59
$GPRMC,120819.00,A,1304.79666,N,05928.73442,W,0.025,,170120,,,D*68
$GPGGA,120819.00,1304.79666,N,05928.73442,W,2,11,0.72,47.5,M,-43.4,M,,*5D
$GPRMC,120820.00,A,1304.79669,N,05928.73442,W,0.041,,170120,,,D*6F
$GPGGA,120820.00,1304.79669,N,05928.73442,W,2,11,0.72,47.5,M,-43.4,M,,*58
$GPRMC,120821.00,A,1304.79666,N,05928.73434,W,0.032,,170120,,,D*64
$GPGGA,120821.00,1304.79666,N,05928.73434,W,2,11,0.72,47.5,M,-43.4,M,,*57
$GPRMC,120822.00,A,1304.79666,N,05928.73435,W,0.046,,170120,,,D*65
$GPGGA,120822.00,1304.79666,N,05928.73435,W,2,11,0.72,47.7,M,-43.4,M,,*57
$GPRMC,120823.00,A,1304.79665,N,05928.73438,W,0.042,,170120,,,D*6E
$GPGGA,120823.00,1304.79665,N,05928.73438,W,2,11,0.72,47.6,M,-43.4,M,,*59
$GPRMC,120824.00,A,1304.79660,N,05928.73433,W,0.057,,170120,,,D*63
$GPGGA,120824.00,1304.79660,N,05928.73433,W,2,11,0.72,47.4,M,-43.4,M,,*52
$GPRMC,120825.00,A,1304.79660,N,05928.73432,W,0.060,,170120,,,D*67
$GPGGA,120825.00,1304.79660,N,05928.73432,W,2,11,0.72,47.4,M,-43.4,M,,*52
$GPRMC,120826.00,A,1304.79658,N,05928.73431,W,0.075,,170120,,,D*68
$GPGGA,120826.00,1304.79658,N,05928.73431,W,2,11,0.72,47.3,M,-43.4,M,,*5E
$GPRMC,120827.00,A,1304.79666,N,05928.73434,W,0.064,,170120,,,D*61
$GPGGA,120827.00,1304.79666,N,05928.73434,W,2,11,0.72,47.1,M,-43.4,M,,*55
$GPRMC,120828.00,A,1304.79664,N,05928.73435,W,0.016,,170120,,,D*68
$GPGGA,120828.00,1304.79664,N,05928.73435,W,2,11,0.72,47.3,M,-43.4,M,,*5B
$GPRMC,120829.00,A,1304.79662,N,05928.73437,W,0.038,,170120,,,D*61
$GPGGA,120829.00,1304.79662,N,05928.73437,W,2,11,0.72,47.4,M,-43.4,M,,*59
$GPRMC,120830.00,A,1304.79666,N,05928.73441,W,0.072,,170120,,,D*62
$GPGGA,120830.00,1304.79666,N,05928.73441,W,2,11,0.72,47.5,M,-43.4,M,,*55
$GPRMC,120831.00,A,1304.79668,N,05928.73443,W,0.026,,170120,,,D*6E
$GPGGA,120831.00,1304.79668,N,05928.73443,W,2,11,0.72,47.4,M,-43.4,M,,*59
$GPRMC,120832.00,A,1304.79667,N,05928.73448,W,0.094,,170120,,,D*60
$GPGGA,120832.00,1304.79667,N,05928.73448,W,2,11,0.72,47.4,M,-43.4,M,,*5E
$GPRMC,120833.00,A,1304.79656,N,05928.73453,W,0.068,,170120,,,D*6A
$GPGGA,120833.00,1304.79656,N,05928.73453,W,2,11,0.72,47.5,M,-43.4,M,,*56
$GPRMC,120834.00,A,1304.79653,N,05928.73458,W,0.080,,170120,,,D*65
$GPGGA,120834.00,1304.79653,N,05928.73458,W,2,11,0.72,47.8,M,-43.4,M,,*52
$GPRMC,120835.00,A,1304.79653,N,05928.73456,W,0.037,,170120,,,D*66
$GPGGA,120835.00,1304.79653,N,05928.73456,W,2,11,0.72,48.0,M,-43.4,M,,*5A
$GPRMC,120836.00,A,1304.79651,N,05928.73452,W,0.034,,170120,,,D*60
$GPGGA,120836.00,1304.79651,N,05928.73452,W,2,11,0.72,48.1,M,-43.4,M,,*5E
$GPRMC,120837.00,A,1304.79650,N,05928.73443,W,0.031,,170120,,,D*65
$GPGGA,120837.00,1304.79650,N,05928.73443,W,2,11,0.72,48.2,M,-43.4,M,,*5D
$GPRMC,120838.00,A,1304.79653,N,05928.73439,W,0.052,,170120,,,D*61
$GPGGA,120838.00,1304.79653,N,05928.73439,W,2,11,0.72,48.2,M,-43.4,M,,*5C
$GPRMC,120839.00,A,1304.79658,N,05928.73438,W,0.034,,170120,,,D*6A
$GPGGA,120839.00,1304.79658,N,05928.73438,W,2,11,0.72,48.4,M,-43.4,M,,*51
$GPRMC,120840.00,A,1304.79657,N,05928.73444,W,0.060,,170120,,,D*61
$GPGGA,120840.00,1304.79657,N,05928.73444,W,2,11,0.72,48.6,M,-43.4,M,,*59
$GPRMC,120841.00,A,1304.79657,N,05928.73448,W,0.055,,170120,,,D*6A
$GPGGA,120841.00,1304.79657,N,05928.73448,W,2,11,0.72,48.6,M,-43.4,M,,*54
$GPRMC,120842.00,A,1304.79658,N,05928.73453,W,0.054,,170120,,,D*6D
$GPGGA,120842.00,1304.79658,N,05928.73453,W,2,11,0.72,48.7,M,-43.4,M,,*53
$GPRMC,120843.00,A,1304.79657,N,05928.73449,W,0.077,,170120,,,D*69
$GPGGA,120843.00,1304.79657,N,05928.73449,W,2,11,0.72,48.6,M,-43.4,M,,*57
$GPRMC,120844.00,A,1304.79657,N,05928.73445,W,0.026,,170120,,,D*66
$GPGGA,120844.00,1304.79657,N,05928.73445,W,2,11,0.72,48.7,M,-43.4,M,,*5D
$GPRMC,120845.00,A,1304.79658,N,05928.73444,W,0.037,,170120,,,D*69
$GPGGA,120845.00,1304.79658,N,05928.73444,W,2,11,0.72,48.5,M,-43.4,M,,*50
$GPRMC,120846.00,A,1304.79659,N,05928.73447,W,0.056,,170120,,,D*6F
$GPGGA,120846.00,1304.79659,N,05928.73447,W,2,11,0.72,48.7,M,-43.4,M,,*53
$GPRMC,120847.00,A,1304.79659,N,05928.73455,W,0.047,,170120,,,D*6D
$GPGGA,120847.00,1304.79659,N,05928.73455,W,2,11,0.72,48.7,M,-43.4,M,,*51
$GPRMC,120848.00,A,1304.79659,N,05928.73457,W,0.091,,170120,,,D*6B
$GPGGA,120848.00,1304.79659,N,05928.73457,W,2,11,0.72,48.7,M,-43.4,M,,*5C
$GPRMC,120849.00,A,1304.79653,N,05928.73460,W,0.081,,170120,,,D*65
$GPGGA,120849.00,1304.79653,N,05928.73460,W,2,11,0.72,48.7,M,-43.4,M,,*53
$GPRMC,120850.00,A,1304.79654,N,05928.73460,W,0.048,,170120,,,D*6F
$GPGGA,120850.00,1304.79654,N,05928.73460,W,2,11,0.72,48.6,M,-43.4,M,,*5D
$GPRMC,120851.00,A,1304.79660,N,05928.73460,W,0.088,,170120,,,D*65
$GPGGA,120851.00,1304.79660,N,05928.73460,W,2,11,0.72,48.7,M,-43.4,M,,*5A
$GPRMC,120852.00,A,1304.79662,N,05928.73459,W,0.049,,170120,,,D*63
$GPGGA,120852.00,1304.79662,N,05928.73459,W,2,11,0.72,48.9,M,-43.4,M,,*5F
$GPRMC,120853.00,A,1304.79671,N,05928.73456,W,0.096,,170120,,,D*6D
$GPGGA,120853.00,1304.79671,N,05928.73456,W,2,11,0.72,48.9,M,-43.4,M,,*53
$GPRMC,120854.00,A,1304.79670,N,05928.73458,W,0.114,,170120,,,D*6E
$GPGGA,120854.00,1304.79670,N,05928.73458,W,2,11,0.72,48.9,M,-43.4,M,,*5B
$GPRMC,120855.00,A,1304.79673,N,05928.73456,W,0.124,,170120,,,D*61
$GPGGA,120855.00,1304.79673,N,05928.73456,W,2,11,0.72,49.0,M,-43.4,M,,*5F
$GPRMC,120856.00,A,1304.79674,N,05928.73456,W,0.162,,170120,,,D*67
$GPGGA,120856.00,1304.79674,N,05928.73456,W,2,11,0.72,48.9,M,-43.4,M,,*53
$GPRMC,120857.00,A,1304.79674,N,05928.73455,W,0.032,,170120,,,D*61
$GPGGA,120857.00,1304.79674,N,05928.73455,W,2,11,0.72,48.4,M,-43.4,M,,*5C
$GPRMC,120858.00,A,1304.79673,N,05928.73449,W,0.071,,170120,,,D*63
$GPGGA,120858.00,1304.79673,N,05928.73449,W,2,11,0.72,48.2,M,-43.4,M,,*5F
$GPRMC,120859.00,A,1304.79664,N,05928.73451,W,0.027,,170120,,,D*6E
$GPGGA,120859.00,1304.79664,N,05928.73451,W,2,11,0.72,48.0,M,-43.4,M,,*53
$GPRMC,120900.00,A,1304.79661,N,05928.73450,W,0.063,,170120,,,D*67
$GPGGA,120900.00,1304.79661,N,05928.73450,W,2,11,0.72,47.9,M,-43.4,M,,*5C
$GPRMC,120901.00,A,1304.79659,N,05928.73452,W,0.117,,170120,,,D*6D
$GPGGA,120901.00,1304.79659,N,05928.73452,W,2,11,0.72,48.2,M,-43.4,M,,*50
$GPRMC,120902.00,A,1304.79658,N,05928.73456,W,0.047,,170120,,,D*6F
$GPGGA,120902.00,1304.79658,N,05928.73456,W,2,11,0.72,48.2,M,-43.4,M,,*56
$GPRMC,120903.00,A,1304.79662,N,05928.73464,W,0.013,,170120,,,D*67
$GPGGA,120903.00,1304.79662,N,05928.73464,W,2,11,0.72,48.3,M,-43.4,M,,*5E
$GPRMC,120904.00,A,1304.79665,N,05928.73465,W,0.057,,170120,,,D*66
$GPGGA,120904.00,1304.79665,N,05928.73465,W,2,11,0.72,48.3,M,-43.4,M,,*5F
$GPRMC,120905.00,A,1304.79672,N,05928.73463,W,0.121,,170120,,,D*67
$GPGGA,120905.00,1304.79672,N,05928.73463,W,2,11,0.72,48.3,M,-43.4,M,,*5E
$GPRMC,120906.00,A,1304.79673,N,05928.73464,W,0.031,,170120,,,D*62
$GPGGA,120906.00,1304.79673,N,05928.73464,W,2,11,0.72,48.4,M,-43.4,M,,*5C
$GPRMC,120907.00,A,1304.79674,N,05928.73463,W,0.039,,170120,,,D*6B
$GPGGA,120907.00,1304.79674,N,05928.73463,W,2,11,0.72,48.4,M,-43.4,M,,*5D
$GPRMC,120908.00,A,1304.79672,N,05928.73464,W,0.036,,170120,,,D*6A
$GPGGA,120908.00,1304.79672,N,05928.73464,W,2,11,0.72,48.6,M,-43.4,M,,*51
$GPRMC,120909.00,A,1304.79666,N,05928.73463,W,0.132,,170120,,,D*6C
$GPGGA,120909.00,1304.79666,N,05928.73463,W,2,11,0.72,48.6,M,-43.4,M,,*52
$GPRMC,120910.00,A,1304.79663,N,05928.73461,W,0.020,,170120,,,D*61
$GPGGA,120910.00,1304.79663,N,05928.73461,W,2,11,0.72,48.7,M,-43.4,M,,*5C
$GPRMC,120911.00,A,1304.79659,N,05928.73454,W,0.091,,170120,,,D*65
$GPGGA,120911.00,1304.79659,N,05928.73454,W,2,11,0.72,48.8,M,-43.4,M,,*5D
$GPRMC,120912.00,A,1304.79662,N,05928.73451,W,0.052,,170120,,,D*64
$GPGGA,120912.00,1304.79662,N,05928.73451,W,2,11,0.72,48.8,M,-43.4,M,,*53
$GPRMC,120913.00,A,1304.79663,N,05928.73450,W,0.036,,170120,,,D*67
$GPGGA,120913.00,1304.79663,N,05928.73450,W,2,11,0.72,48.9,M,-43.4,M,,*53
$GPRMC,120914.00,A,1304.79659,N,05928.73453,W,0.063,,170120,,,D*6A
$GPGGA,120914.00,1304.79659,N,05928.73453,W,2,11,0.72,48.7,M,-43.4,M,,*50
$GPRMC,120915.00,A,1304.79657,N,05928.73452,W,0.061,,170120,,,D*66
$GPGGA,120915.00,1304.79657,N,05928.73452,W,2,11,0.72,48.9,M,-43.4,M,,*50
$GPRMC,120916.00,A,1304.79659,N,05928.73454,W,0.081,,170120,,,D*63
$GPGGA,120916.00,1304.79659,N,05928.73454,W,2,11,0.72,49.1,M,-43.4,M,,*52
$GPRMC,120917.00,A,1304.79664,N,05928.73452,W,0.082,,170120,,,D*69
$GPGGA,120917.00,1304.79664,N,05928.73452,W,2,11,0.72,49.1,M,-43.4,M,,*5B
$GPRMC,120918.00,A,1304.79669,N,05928.73454,W,0.028,,170120,,,D*6D
$GPGGA,120918.00,1304.79669,N,05928.73454,W,2,11,0.72,49.1,M,-43.4,M,,*5F
$GPRMC,120919.00,A,1304.79667,N,05928.73453,W,0.049,,170120,,,D*62
$GPGGA,120919.00,1304.79667,N,05928.73453,W,2,11,0.72,48.9,M,-43.4,M,,*5E
$GPRMC,120920.00,A,1304.79663,N,05928.73447,W,0.115,,170120,,,D*61
$GPGGA,120920.00,1304.79663,N,05928.73447,W,2,11,0.72,49.1,M,-43.4,M,,*5C
$GPRMC,120921.00,A,1304.79657,N,05928.73441,W,0.045,,170120,,,D*65
$GPGGA,120921.00,1304.79657,N,05928.73441,W,2,11,0.72,48.9,M,-43.4,M,,*55
$GPRMC,120922.00,A,1304.79652,N,05928.73443,W,0.072,,170120,,,D*65
$GPGGA,120922.00,1304.79652,N,05928.73443,W,2,11,0.72,48.9,M,-43.4,M,,*51
$GPRMC,120923.00,A,1304.79650,N,05928.73444,W,0.110,,170120,,,D*64
$GPGGA,120923.00,1304.79650,N,05928.73444,W,2,11,0.72,48.8,M,-43.4,M,,*54
$GPRMC,120924.00,A,1304.79649,N,05928.73443,W,0.064,,170120,,,D*6E
$GPGGA,120924.00,1304.79649,N,05928.73443,W,2,11,0.72,49.0,M,-43.4,M,,*55
$GPRMC,120925.00,A,1304.79654,N,05928.73443,W,0.084,,170120,,,D*6D
$GPGGA,120925.00,1304.79654,N,05928.73443,W,2,11,0.72,48.8,M,-43.4,M,,*51
$GPRMC,120926.00,A,1304.79657,N,05928.73446,W,0.038,,170120,,,D*6F
$GPGGA,120926.00,1304.79657,N,05928.73446,W,2,11,0.72,48.9,M,-43.4,M,,*55
$GPRMC,120927.00,A,1304.79658,N,05928.73446,W,0.055,,170120,,,D*6A
$GPGGA,120927.00,1304.79658,N,05928.73446,W,2,11,0.72,49.1,M,-43.4,M,,*52
$GPRMC,120928.00,A,1304.79652,N,05928.73444,W,0.059,,170120,,,D*61
$GPGGA,120928.00,1304.79652,N,05928.73444,W,2,11,0.72,49.2,M,-43.4,M,,*56
$GPRMC,120929.00,A,1304.79652,N,05928.73449,W,0.116,,170120,,,D*67
$GPGGA,120929.00,1304.79652,N,05928.73449,W,2,11,0.72,49.3,M,-43.4,M,,*5B
$GPRMC,120930.00,A,1304.79653,N,05928.73448,W,0.040,,170120,,,D*6D
$GPGGA,120930.00,1304.79653,N,05928.73448,W,2,11,0.72,49.1,M,-43.4,M,,*51
$GPRMC,120931.00,A,1304.79653,N,05928.73448,W,0.093,,170120,,,D*62
$GPGGA,120931.00,1304.79653,N,05928.73448,W,2,11,0.72,49.1,M,-43.4,M,,*50
$GPRMC,120932.00,A,1304.79650,N,05928.73446,W,0.083,,170120,,,D*6D
$GPGGA,120932.00,1304.79650,N,05928.73446,W,2,11,0.72,48.9,M,-43.4,M,,*57
$GPRMC,120933.00,A,1304.79652,N,05928.73445,W,0.064,,170120,,,D*64
$GPGGA,120933.00,1304.79652,N,05928.73445,W,2,11,0.72,48.9,M,-43.4,M,,*57
$GPRMC,120934.00,A,1304.79649,N,05928.73449,W,0.112,,170120,,,D*65
$GPGGA,120934.00,1304.79649,N,05928.73449,W,2,11,0.72,48.8,M,-43.4,M,,*57
$GPRMC,120935.00,A,1304.79649,N,05928.73452,W,0.133,,170120,,,D*6D
$GPGGA,120935.00,1304.79649,N,05928.73452,W,2,11,0.72,48.6,M,-43.4,M,,*52
$GPRMC,120936.00,A,1304.79646,N,05928.73459,W,0.105,,170120,,,D*6F
$GPGGA,120936.00,1304.79646,N,05928.73459,W,2,11,0.72,48.6,M,-43.4,M,,*55
$GPRMC,120937.00,A,1304.79649,N,05928.73461,W,0.139,,170120,,,D*65
$GPGGA,120937.00,1304.79649,N,05928.73461,W,2,11,0.72,48.8,M,-43.4,M,,*5E
$GPRMC,120938.00,A,1304.79650,N,05928.73461,W,0.033,,170120,,,D*69
$GPGGA,120938.00,1304.79650,N,05928.73461,W,2,11,0.72,48.8,M,-43.4,M,,*59
$GPRMC,120939.00,A,1304.79646,N,05928.73460,W,0.036,,170120,,,D*6B
$GPGGA,120939.00,1304.79646,N,05928.73460,W,2,11,0.72,48.8,M,-43.4,M,,*5E
$GPRMC,120940.00,A,1304.79645,N,05928.73457,W,0.031,,170120,,,D*65
$GPGGA,120940.00,1304.79645,N,05928.73457,W,2,11,0.72,48.7,M,-43.4,M,,*58
$GPRMC,120941.00,A,1304.79643,N,05928.73461,W,0.046,,170120,,,D*67
$GPGGA,120941.00,1304.79643,N,05928.73461,W,2,11,0.72,48.9,M,-43.4,M,,*54
$GPRMC,120942.00,A,1304.79643,N,05928.73461,W,0.073,,170120,,,D*62
$GPGGA,120942.00,1304.79643,N,05928.73461,W,2,11,0.72,48.8,M,-43.4,M,,*56
$GPRMC,120943.00,A,1304.79639,N,05928.73460,W,0.033,,170120,,,D*6B
$GPGGA,120943.00,1304.79639,N,05928.73460,W,2,11,0.72,48.9,M,-43.4,M,,*5A
$GPRMC,120944.00,A,1304.79638,N,05928.73460,W,0.061,,170120,,,D*6A
$GPGGA,120944.00,1304.79638,N,05928.73460,W,2,11,0.72,49.2,M,-43.4,M,,*56
$GPRMC,120945.00,A,1304.79646,N,05928.73456,W,0.112,,170120,,,D*62
$GPGGA,120945.00,1304.79646,N,05928.73456,W,2,11,0.72,49.0,M,-43.4,M,,*59
$GPRMC,120946.00,A,1304.79651,N,05928.73453,W,0.048,,170120,,,D*6C
$GPGGA,120946.00,1304.79651,N,05928.73453,W,2,11,0.72,49.0,M,-43.4,M,,*59
$GPRMC,120947.00,A,1304.79652,N,05928.73451,W,0.146,,170120,,,D*63
$GPGGA,120947.00,1304.79652,N,05928.73451,W,2,11,0.72,48.9,M,-43.4,M,,*51
$GPRMC,120948.00,A,1304.79653,N,05928.73447,W,0.052,,170120,,,D*6E
$GPGGA,120948.00,1304.79653,N,05928.73447,W,2,11,0.72,48.8,M,-43.4,M,,*59
$GPRMC,120949.00,A,1304.79655,N,05928.73449,W,0.070,,170120,,,D*67
$GPGGA,120949.00,1304.79655,N,05928.73449,W,2,11,0.72,48.6,M,-43.4,M,,*5E
$GPRMC,120950.00,A,1304.79651,N,05928.73456,W,0.106,,170120,,,D*65
$GPGGA,120950.00,1304.79651,N,05928.73456,W,2,11,0.72,48.6,M,-43.4,M,,*5C
$GPRMC,120951.00,A,1304.79649,N,05928.73465,W,0.020,,170120,,,D*68
$GPGGA,120951.00,1304.79649,N,05928.73465,W,2,11,0.72,48.6,M,-43.4,M,,*54
$GPRMC,120952.00,A,1304.79648,N,05928.73466,W,0.076,,170120,,,D*6A
$GPGGA,120952.00,1304.79648,N,05928.73466,W,2,11,0.72,48.6,M,-43.4,M,,*55
$GPRMC,120953.00,A,1304.79652,N,05928.73464,W,0.099,,170120,,,D*63
$GPGGA,120953.00,1304.79652,N,05928.73464,W,2,11,0.72,48.5,M,-43.4,M,,*5E
$GPRMC,120954.00,A,1304.79654,N,05928.73459,W,0.086,,170120,,,D*62
$GPGGA,120954.00,1304.79654,N,05928.73459,W,2,11,0.72,48.5,M,-43.4,M,,*51
$GPRMC,120955.00,A,1304.79655,N,05928.73457,W,0.132,,170120,,,D*62
$GPGGA,120955.00,1304.79655,N,05928.73457,W,2,11,0.72,48.5,M,-43.4,M,,*5F
$GPRMC,120956.00,A,1304.79656,N,05928.73453,W,0.096,,170120,,,D*69
$GPGGA,120956.00,1304.79656,N,05928.73453,W,2,11,0.72,48.5,M,-43.4,M,,*5B
$GPRMC,120957.00,A,1304.79650,N,05928.73452,W,0.136,,170120,,,D*64
$GPGGA,120957.00,1304.79650,N,05928.73452,W,2,11,0.72,48.4,M,-43.4,M,,*5C
$GPRMC,120958.00,A,1304.79640,N,05928.73451,W,0.036,,170120,,,D*68
$GPGGA,120958.00,1304.79640,N,05928.73451,W,2,11,0.72,48.3,M,-43.4,M,,*56
$GPRMC,120959.00,A,1304.79634,N,05928.73455,W,0.078,,170120,,,D*64
$GPGGA,120959.00,1304.79634,N,05928.73455,W,2,11,0.72,48.4,M,-43.4,M,,*57
$GPRMC,121000.00,A,1304.79630,N,05928.73462,W,0.012,,170120,,,D*6C
$GPGGA,121000.00,1304.79630,N,05928.73462,W,2,11,0.72,48.4,M,-43.4,M,,*53
$GPRMC,121001.00,A,1304.79633,N,05928.73461,W,0.092,,170120,,,D*65
$GPGGA,121001.00,1304.79633,N,05928.73461,W,2,11,0.72,48.3,M,-43.4,M,,*55
$GPRMC,121002.00,A,1304.79635,N,05928.73461,W,0.084,,170120,,,D*67
$GPGGA,121002.00,1304.79635,N,05928.73461,W,2,11,0.72,48.3,M,-43.4,M,,*50
$GPRMC,121003.00,A,1304.79636,N,05928.73463,W,0.056,,170120,,,D*68
$GPGGA,121003.00,1304.79636,N,05928.73463,W,2,11,0.72,48.5,M,-43.4,M,,*56
$GPRMC,121004.00,A,1304.79642,N,05928.73468,W,0.084,,170120,,,D*68
$GPGGA,121004.00,1304.79642,N,05928.73468,W,2,11,0.72,48.5,M,-43.4,M,,*59
$GPRMC,121005.00,A,1304.79643,N,05928.73467,W,0.034,,170120,,,D*6C
$GPGGA,121005.00,1304.79643,N,05928.73467,W,2,11,0.72,48.6,M,-43.4,M,,*55
$GPRMC,121006.00,A,1304.79642,N,05928.73463,W,0.041,,170120,,,D*68
$GPGGA,121006.00,1304.79642,N,05928.73463,W,2,11,0.72,48.5,M,-43.4,M,,*50
$GPRMC,121007.00,A,1304.79643,N,05928.73463,W,0.010,,170120,,,D*6C
$GPGGA,121007.00,1304.79643,N,05928.73463,W,2,11,0.72,48.5,M,-43.4,M,,*50
$GPRMC,121008.00,A,1304.79649,N,05928.73459,W,0.055,,170120,,,D*61
$GPGGA,121008.00,1304.79649,N,05928.73459,W,2,11,0.72,48.7,M,-43.4,M,,*5E
$GPRMC,121009.00,A,1304.79652,N,05928.73459,W,0.020,,170120,,,D*68
$GPGGA,121009.00,1304.79652,N,05928.73459,W,2,11,0.72,48.6,M,-43.4,M,,*54
$GPRMC,121010.00,A,1304.79656,N,05928.73455,W,0.139,,170120,,,D*61
$GPGGA,121010.00,1304.79656,N,05928.73455,W,2,11,0.72,48.5,M,-43.4,M,,*57
$GPRMC,121011.00,A,1304.79662,N,05928.73462,W,0.103,,170120,,,D*6A
$GPGGA,121011.00,1304.79662,N,05928.73462,W,2,11,0.72,48.0,M,-43.4,M,,*50
$GPRMC,121012.00,A,1304.79664,N,05928.73460,W,0.050,,170120,,,D*6A
$GPGGA,121012.00,1304.79664,N,05928.73460,W,2,11,0.72,47.8,M,-43.4,M,,*50
$GPRMC,121013.00,A,1304.79667,N,05928.73456,W,0.069,,170120,,,D*67
$GPGGA,121013.00,1304.79667,N,05928.73456,W,2,11,0.72,47.6,M,-43.4,M,,*59
$GPRMC,121014.00,A,1304.79665,N,05928.73460,W,0.082,,170120,,,D*62
$GPGGA,121014.00,1304.79665,N,05928.73460,W,2,11,0.72,47.6,M,-43.4,M,,*59
$GPRMC,121015.00,A,1304.79661,N,05928.73461,W,0.175,,170120,,,D*6F
$GPGGA,121015.00,1304.79661,N,05928.73461,W,2,11,0.72,47.7,M,-43.4,M,,*5C
$GPRMC,121016.00,A,1304.79656,N,05928.73464,W,0.042,,170120,,,D*68
$GPGGA,121016.00,1304.79656,N,05928.73464,W,2,11,0.72,47.8,M,-43.4,M,,*51
$GPRMC,121017.00,A,1304.79659,N,05928.73465,W,0.019,,170120,,,D*69
$GPGGA,121017.00,1304.79659,N,05928.73465,W,2,11,0.72,47.8,M,-43.4,M,,*5E
$GPRMC,121018.00,A,1304.79660,N,05928.73466,W,0.092,,170120,,,D*6C
$GPGGA,121018.00,1304.79660,N,05928.73466,W,2,11,0.72,48.0,M,-43.4,M,,*5F
$GPRMC,121019.00,A,1304.79665,N,05928.73463,W,0.008,,170120,,,D*6E
$GPGGA,121019.00,1304.79665,N,05928.73463,W,2,11,0.72,48.0,M,-43.4,M,,*5E
$GPRMC,121020.00,A,1304.79669,N,05928.73464,W,0.081,,170120,,,D*6E
$GPGGA,121020.00,1304.79669,N,05928.73464,W,2,11,0.72,48.2,M,-43.4,M,,*5D
$GPRMC,121021.00,A,1304.79668,N,05928.73464,W,0.089,,170120,,,D*66
$GPGGA,121021.00,1304.79668,N,05928.73464,W,2,11,0.72,48.2,M,-43.4,M,,*5D
$GPRMC,121022.00,A,1304.79664,N,05928.73465,W,0.040,,170120,,,D*6D
$GPGGA,121022.00,1304.79664,N,05928.73465,W,2,11,0.72,48.2,M,-43.4,M,,*53
$GPRMC,121023.00,A,1304.79660,N,05928.73466,W,0.099,,170120,,,D*6F
$GPGGA,121023.00,1304.79660,N,05928.73466,W,2,11,0.72,48.1,M,-43.4,M,,*56
$GPRMC,121024.00,A,1304.79661,N,05928.73470,W,0.014,,170120,,,D*6B
$GPGGA,121024.00,1304.79661,N,05928.73470,W,2,11,0.72,48.1,M,-43.4,M,,*57
$GPRMC,121025.00,A,1304.79667,N,05928.73470,W,0.084,,170120,,,D*65
$GPGGA,121025.00,1304.79667,N,05928.73470,W,2,11,0.72,48.2,M,-43.4,M,,*53
$GPRMC,121026.00,A,1304.79671,N,05928.73467,W,0.117,,170120,,,D*6C
$GPGGA,121026.00,1304.79671,N,05928.73467,W,2,11,0.72,48.2,M,-43.4,M,,*51
$GPRMC,121027.00,A,1304.79673,N,05928.73472,W,0.071,,170120,,,D*6A
$GPGGA,121027.00,1304.79673,N,05928.73472,W,2,11,0.72,48.3,M,-43.4,M,,*57
$GPRMC,121028.00,A,1304.79671,N,05928.73477,W,0.095,,170120,,,D*68
$GPGGA,121028.00,1304.79671,N,05928.73477,W,2,11,0.72,48.5,M,-43.4,M,,*59
$GPRMC,121029.00,A,1304.79668,N,05928.73478,W,0.119,,170120,,,D*6B
$GPGGA,121029.00,1304.79668,N,05928.73478,W,2,11,0.72,48.4,M,-43.4,M,,*5E
$GPRMC,121030.00,A,1304.79666,N,05928.73479,W,0.031,,170120,,,D*67
$GPGGA,121030.00,1304.79666,N,05928.73479,W,2,11,0.72,48.1,M,-43.4,M,,*5C
$GPRMC,121031.00,A,1304.79662,N,05928.73475,W,0.086,,170120,,,D*62
$GPGGA,121031.00,1304.79662,N,05928.73475,W,2,11,0.72,48.0,M,-43.4,M,,*54
$GPRMC,121032.00,A,1304.79663,N,05928.73471,W,0.147,,170120,,,D*68
$GPGGA,121032.00,1304.79663,N,05928.73471,W,2,11,0.72,48.0,M,-43.4,M,,*52
$GPRMC,121033.00,A,1304.79669,N,05928.73472,W,0.019,,170120,,,D*6A
$GPGGA,121033.00,1304.79669,N,05928.73472,W,2,11,0.72,47.8,M,-43.4,M,,*5D
$GPRMC,121034.00,A,1304.79674,N,05928.73473,W,0.099,,170120,,,D*68
$GPGGA,121034.00,1304.79674,N,05928.73473,W,2,11,0.72,47.8,M,-43.4,M,,*57
$GPRMC,121035.00,A,1304.79674,N,05928.73469,W,0.108,,170120,,,D*6B
$GPGGA,121035.00,1304.79674,N,05928.73469,W,2,11,0.72,47.7,M,-43.4,M,,*52
$GPRMC,121036.00,A,1304.79673,N,05928.73468,W,0.078,,170120,,,D*68
$GPGGA,121036.00,1304.79673,N,05928.73468,W,2,11,0.72,47.8,M,-43.4,M,,*58
$GPRMC,121037.00,A,1304.79673,N,05928.73471,W,0.074,,170120,,,D*6D
$GPGGA,121037.00,1304.79673,N,05928.73471,W,2,11,0.72,47.7,M,-43.4,M,,*5E
$GPRMC,121038.00,A,1304.79666,N,05928.73471,W,0.015,,170120,,,D*61
$GPGGA,121038.00,1304.79666,N,05928.73471,W,2,11,0.72,47.6,M,-43.4,M,,*54
$GPRMC,121039.00,A,1304.79658,N,05928.73469,W,0.029,,170120,,,D*6B
$GPGGA,121039.00,1304.79658,N,05928.73469,W,2,11,0.72,47.6,M,-43.4,M,,*51
$GPRMC,121040.00,A,1304.79654,N,05928.73466,W,0.070,,170120,,,D*6A
$GPGGA,121040.00,1304.79654,N,05928.73466,W,2,11,0.72,47.7,M,-43.4,M,,*5D
$GPRMC,121041.00,A,1304.79649,N,05928.73466,W,0.073,,170120,,,D*64
$GPGGA,121041.00,1304.79649,N,05928.73466,W,2,11,0.72,47.6,M,-43.4,M,,*51
$GPRMC,121042.00,A,1304.79645,N,05928.73458,W,0.057,,170120,,,D*60
$GPGGA,121042.00,1304.79645,N,05928.73458,W,2,11,0.72,47.7,M,-43.4,M,,*52
$GPRMC,121043.00,A,1304.79643,N,05928.73455,W,0.137,,170120,,,D*6D
$GPGGA,121043.00,1304.79643,N,05928.73455,W,2,11,0.72,47.7,M,-43.4,M,,*58
$GPRMC,121044.00,A,1304.79645,N,05928.73455,W,0.013,,170120,,,D*6B
$GPGGA,121044.00,1304.79645,N,05928.73455,W,2,11,0.72,47.9,M,-43.4,M,,*57
$GPRMC,121045.00,A,1304.79648,N,05928.73458,W,0.034,,170120,,,D*6F
$GPGGA,121045.00,1304.79648,N,05928.73458,W,2,11,0.72,47.8,M,-43.4,M,,*57
$GPRMC,121046.00,A,1304.79648,N,05928.73464,W,0.056,,170120,,,D*67
$GPGGA,121046.00,1304.79648,N,05928.73464,W,2,11,0.72,48.0,M,-43.4,M,,*5C
$GPRMC,121047.00,A,1304.79649,N,05928.73467,W,0.087,,170120,,,D*68
$GPGGA,121047.00,1304.79649,N,05928.73467,W,2,11,0.72,48.1,M,-43.4,M,,*5E
$GPRMC,121048.00,A,1304.79650,N,05928.73468,W,0.084,,170120,,,D*63
$GPGGA,121048.00,1304.79650,N,05928.73468,W,2,11,0.72,47.9,M,-43.4,M,,*51
$GPRMC,121049.00,A,1304.79651,N,05928.73468,W,0.028,,170120,,,D*65
$GPGGA,121049.00,1304.79651,N,05928.73468,W,2,11,0.72,47.9,M,-43.4,M,,*51
$GPRMC,121050.00,A,1304.79651,N,05928.73465,W,0.108,,170120,,,D*63
$GPGGA,121050.00,1304.79651,N,05928.73465,W,2,11,0.72,47.9,M,-43.4,M,,*54
$GPRMC,121051.00,A,1304.79647,N,05928.73467,W,0.037,,170120,,,D*6A
$GPGGA,121051.00,1304.79647,N,05928.73467,W,2,11,0.72,47.7,M,-43.4,M,,*5E
$GPRMC,121052.00,A,1304.79645,N,05928.73467,W,0.096,,170120,,,D*60
$GPGGA,121052.00,1304.79645,N,05928.73467,W,2,11,0.72,47.7,M,-43.4,M,,*5F
$GPRMC,121053.00,A,1304.79647,N,05928.73468,W,0.044,,170120,,,D*63
$GPGGA,121053.00,1304.79647,N,05928.73468,W,2,11,0.72,47.6,M,-43.4,M,,*52
$GPRMC,121054.00,A,1304.79648,N,05928.73469,W,0.065,,170120,,,D*69
$GPGGA,121054.00,1304.79648,N,05928.73469,W,2,11,0.72,47.5,M,-43.4,M,,*58
$GPRMC,121055.00,A,1304.79649,N,05928.73468,W,0.113,,170120,,,D*68
$GPGGA,121055.00,1304.79649,N,05928.73468,W,2,11,0.72,47.5,M,-43.4,M,,*59
$GPRMC,121056.00,A,1304.79652,N,05928.73463,W,0.038,,170120,,,D*62
$GPGGA,121056.00,1304.79652,N,05928.73463,W,2,11,0.72,47.6,M,-43.4,M,,*58
$GPRMC,121057.00,A,1304.79665,N,05928.73466,W,0.107,,170120,,,D*6F
$GPGGA,121057.00,1304.79665,N,05928.73466,W,2,11,0.72,47.8,M,-43.4,M,,*56
$GPRMC,121058.00,A,1304.79668,N,05928.73469,W,0.091,,170120,,,D*6C
$GPGGA,121058.00,1304.79668,N,05928.73469,W,2,11,0.72,47.7,M,-43.4,M,,*54
$GPRMC,121059.00,A,1304.79666,N,05928.73471,W,0.121,,170120,,,D*60
$GPGGA,121059.00,1304.79666,N,05928.73471,W,2,11,0.72,47.7,M,-43.4,M,,*52
$GPRMC,121100.00,A,1304.79665,N,05928.73470,W,0.103,,170120,,,D*6F
$GPGGA,121100.00,1304.79665,N,05928.73470,W,2,11,0.72,47.8,M,-43.4,M,,*52
$GPRMC,121101.00,A,1304.79665,N,05928.73471,W,0.062,,170120,,,D*69
$GPGGA,121101.00,1304.79665,N,05928.73471,W,2,11,0.72,47.8,M,-43.4,M,,*52
$GPRMC,121102.00,A,1304.79663,N,05928.73477,W,0.029,,170120,,,D*65
$GPGGA,121102.00,1304.79663,N,05928.73477,W,2,11,0.72,47.9,M,-43.4,M,,*50
$GPRMC,121103.00,A,1304.79660,N,05928.73482,W,0.034,,170120,,,D*61
$GPGGA,121103.00,1304.79660,N,05928.73482,W,2,11,0.72,47.8,M,-43.4,M,,*59
$GPRMC,121104.00,A,1304.79657,N,05928.73480,W,0.021,,170120,,,D*64
$GPGGA,121104.00,1304.79657,N,05928.73480,W,2,11,0.72,47.8,M,-43.4,M,,*58
$GPRMC,121105.00,A,1304.79654,N,05928.73481,W,0.053,,170120,,,D*62
$GPGGA,121105.00,1304.79654,N,05928.73481,W,2,11,0.72,47.7,M,-43.4,M,,*54
$GPRMC,121106.00,A,1304.79653,N,05928.73480,W,0.028,,170120,,,D*6B
$GPGGA,121106.00,1304.79653,N,05928.73480,W,2,11,0.72,47.6,M,-43.4,M,,*50
$GPRMC,121107.00,A,1304.79655,N,05928.73481,W,0.045,,170120,,,D*66
$GPGGA,121107.00,1304.79655,N,05928.73481,W,2,11,0.72,47.3,M,-43.4,M,,*53
$GPRMC,121108.00,A,1304.79659,N,05928.73485,W,0.024,,170120,,,D*66
$GPGGA,121108.00,1304.79659,N,05928.73485,W,2,11,0.72,47.3,M,-43.4,M,,*54
$GPRMC,121109.00,A,1304.79664,N,05928.73484,W,0.112,,170120,,,D*6C
$GPGGA,121109.00,1304.79664,N,05928.73484,W,2,11,0.72,47.3,M,-43.4,M,,*5A
$GPRMC,121110.00,A,1304.79664,N,05928.73490,W,0.097,,170120,,,D*6D
$GPGGA,121110.00,1304.79664,N,05928.73490,W,2,11,0.72,47.4,M,-43.4,M,,*50
$GPRMC,121111.00,A,1304.79662,N,05928.73492,W,0.115,,170120,,,D*63
$GPGGA,121111.00,1304.79662,N,05928.73492,W,2,11,0.72,47.4,M,-43.4,M,,*55
$GPRMC,121112.00,A,1304.79658,N,05928.73491,W,0.082,,170120,,,D*65
$GPGGA,121112.00,1304.79658,N,05928.73491,W,2,11,0.72,47.6,M,-43.4,M,,*5E
$GPRMC,121113.00,A,1304.79654,N,05928.73498,W,0.067,,170120,,,D*6A
$GPGGA,121113.00,1304.79654,N,05928.73498,W,2,11,0.72,47.8,M,-43.4,M,,*54
$GPRMC,121114.00,A,1304.79648,N,05928.73486,W,0.121,,170120,,,D*6C
$GPGGA,121114.00,1304.79648,N,05928.73486,W,2,11,0.72,47.9,M,-43.4,M,,*50
$GPRMC,121115.00,A,1304.79643,N,05928.73483,W,0.002,,170120,,,D*63
$GPGGA,121115.00,1304.79643,N,05928.73483,W,2,11,0.72,48.0,M,-43.4,M,,*59
$GPRMC,121116.00,A,1304.79641,N,05928.73479,W,0.016,,170120,,,D*62
$GPGGA,121116.00,1304.79641,N,05928.73479,W,2,11,0.72,48.0,M,-43.4,M,,*5D
$GPRMC,121117.00,A,1304.79645,N,05928.73477,W,0.048,,170120,,,D*62
$GPGGA,121117.00,1304.79645,N,05928.73477,W,2,11,0.72,47.7,M,-43.4,M,,*5E
$GPRMC,121118.00,A,1304.79650,N,05928.73474,W,0.130,,170120,,,D*64
$GPGGA,121118.00,1304.79650,N,05928.73474,W,2,11,0.72,47.6,M,-43.4,M,,*57
$GPRMC,121119.00,A,1304.79649,N,05928.73475,W,0.109,,170120,,,D*66
$GPGGA,121119.00,1304.79649,N,05928.73475,W,2,11,0.72,47.8,M,-43.4,M,,*51
$GPRMC,121120.00,A,1304.79655,N,05928.73476,W,0.072,,170120,,,D*6F
$GPGGA,121120.00,1304.79655,N,05928.73476,W,2,11,0.72,47.7,M,-43.4,M,,*5A
$GPRMC,121121.00,A,1304.79663,N,05928.73472,W,0.094,,170120,,,D*67
$GPGGA,121121.00,1304.79663,N,05928.73472,W,2,11,0.72,47.7,M,-43.4,M,,*5A
$GPRMC,121122.00,A,1304.79663,N,05928.73468,W,0.042,,170120,,,D*64
$GPGGA,121122.00,1304.79663,N,05928.73468,W,2,11,0.72,47.8,M,-43.4,M,,*5D
$GPRMC,121123.00,A,1304.79660,N,05928.73465,W,0.058,,170120,,,D*60
$GPGGA,121123.00,1304.79660,N,05928.73465,W,2,11,0.72,47.8,M,-43.4,M,,*52
$GPRMC,121124.00,A,1304.79659,N,05928.73468,W,0.030,,170120,,,D*6E
$GPGGA,121124.00,1304.79659,N,05928.73468,W,2,11,0.72,47.9,M,-43.4,M,,*53
$GPRMC,121125.00,A,1304.79657,N,05928.73467,W,0.023,,170120,,,D*6C
$GPGGA,121125.00,1304.79657,N,05928.73467,W,2,11,0.72,47.9,M,-43.4,M,,*53
$GPRMC,121126.00,A,1304.79658,N,05928.73461,W,0.022,,170120,,,D*67
$GPGGA,121126.00,1304.79658,N,05928.73461,W,2,11,0.72,47.9,M,-43.4,M,,*59
$GPRMC,121127.00,A,1304.79654,N,05928.73463,W,0.112,,170120,,,D*6A
$GPGGA,121127.00,1304.79654,N,05928.73463,W,2,11,0.72,48.0,M,-43.4,M,,*50
$GPRMC,121128.00,A,1304.79651,N,05928.73467,W,0.023,,170120,,,D*67
$GPGGA,121128.00,1304.79651,N,05928.73467,W,2,11,0.72,48.0,M,-43.4,M,,*5E
$GPRMC,121129.00,A,1304.79649,N,05928.73475,W,0.082,,170120,,,D*67
$GPGGA,121129.00,1304.79649,N,05928.73475,W,2,11,0.72,47.9,M,-43.4,M,,*53
$GPRMC,121130.00,A,1304.79646,N,05928.73473,W,0.051,,170120,,,D*68
$GPGGA,121130.00,1304.79646,N,05928.73473,W,2,11,0.72,48.0,M,-43.4,M,,*54
