UTC Date = 2020-01-19
$GPRMC,155828.00,A,1511.10745,N,04922.28081,W,383.233,245.67,190120,,,D*74
$GPGGA,155828.00,1511.10745,N,04922.28081,W,2,12,0.64,13755.6,M,-36.2,M,,*6B
$GPRMC,155829.00,A,1511.06392,N,04922.38110,W,382.842,246.14,190120,,,D*7E
$GPGGA,155829.00,1511.06392,N,04922.38110,W,2,12,0.64,13755.3,M,-36.3,M,,*6F
$GPRMC,155830.00,A,1511.02114,N,04922.48165,W,382.465,246.58,190120,,,D*7A
$GPGGA,155830.00,1511.02114,N,04922.48165,W,2,12,0.64,13755.0,M,-36.3,M,,*69
$GPRMC,155831.00,A,1510.97920,N,04922.58249,W,382.108,247.04,190120,,,D*73
$GPGGA,155831.00,1510.97920,N,04922.58249,W,2,12,0.64,13754.4,M,-36.3,M,,*63
$GPRMC,155832.00,A,1510.93838,N,04922.68360,W,381.590,247.49,190120,,,D*7A
$GPGGA,155832.00,1510.93838,N,04922.68360,W,2,12,0.64,13754.3,M,-36.3,M,,*62
$GPRMC,155833.00,A,1510.89810,N,04922.78480,W,381.329,247.93,190120,,,D*71
$GPGGA,155833.00,1510.89810,N,04922.78480,W,2,12,0.64,13754.2,M,-36.3,M,,*6B
$GPRMC,155834.00,A,1510.85849,N,04922.88631,W,380.881,248.38,190120,,,D*77
$GPGGA,155834.00,1510.85849,N,04922.88631,W,2,12,0.64,13754.8,M,-36.3,M,,*61
$GPRMC,155835.00,A,1510.81975,N,04922.98795,W,380.476,248.84,190120,,,D*71
$GPGGA,155835.00,1510.81975,N,04922.98795,W,2,12,0.64,13755.1,M,-36.3,M,,*6C
$GPRMC,155836.00,A,1510.78180,N,04923.08987,W,380.082,249.29,190120,,,D*7A
$GPGGA,155836.00,1510.78180,N,04923.08987,W,2,12,0.64,13755.2,M,-36.3,M,,*6D
$GPRMC,155837.00,A,1510.74480,N,04923.19192,W,379.628,249.76,190120,,,D*74
$GPGGA,155837.00,1510.74480,N,04923.19192,W,2,12,0.64,13755.3,M,-36.3,M,,*68
$GPRMC,155838.00,A,1510.70862,N,04923.29409,W,379.296,250.17,190120,,,D*75
$GPGGA,155838.00,1510.70862,N,04923.29409,W,2,12,0.64,13755.1,M,-36.3,M,,*65
$GPRMC,155839.00,A,1510.67326,N,04923.39639,W,378.981,250.65,190120,,,D*70
$GPGGA,155839.00,1510.67326,N,04923.39639,W,2,12,0.64,13755.5,M,-36.3,M,,*6D
$GPRMC,155840.00,A,1510.63871,N,04923.49891,W,378.586,251.09,190120,,,D*78
$GPGGA,155840.00,1510.63871,N,04923.49891,W,2,12,0.64,13755.3,M,-36.3,M,,*63
$GPRMC,155841.00,A,1510.60472,N,04923.60174,W,378.935,251.32,190120,,,D*70
$GPGGA,155841.00,1510.60472,N,04923.60174,W,2,12,0.70,13755.9,M,-36.3,M,,*68
$GPRMC,155842.00,A,1510.57187,N,04923.70470,W,377.826,251.98,190120,,,D*74
$GPGGA,155842.00,1510.57187,N,04923.70470,W,2,12,0.64,13756.0,M,-36.3,M,,*6F
$GPRMC,155843.00,A,1510.53995,N,04923.80774,W,377.622,252.39,190120,,,D*70
$GPGGA,155843.00,1510.53995,N,04923.80774,W,2,12,0.64,13756.3,M,-36.3,M,,*6A
$GPRMC,155844.00,A,1510.50850,N,04923.91120,W,377.289,252.78,190120,,,D*7B
$GPGGA,155844.00,1510.50850,N,04923.91120,W,2,12,0.67,13756.7,M,-36.3,M,,*66
$GPRMC,155845.00,A,1510.47783,N,04924.01446,W,376.945,253.19,190120,,,D*7A
$GPGGA,155845.00,1510.47783,N,04924.01446,W,2,12,0.64,13756.9,M,-36.3,M,,*66
$GPRMC,155846.00,A,1510.44785,N,04924.11805,W,376.811,253.58,190120,,,D*73
$GPGGA,155846.00,1510.44785,N,04924.11805,W,2,12,0.64,13757.0,M,-36.3,M,,*62
$GPRMC,155847.00,A,1510.41862,N,04924.22168,W,376.490,253.89,190120,,,D*7A
$GPGGA,155847.00,1510.41862,N,04924.22168,W,2,12,0.64,13757.0,M,-36.3,M,,*62
$GPRMC,155848.00,A,1510.38990,N,04924.32550,W,376.398,254.17,190120,,,D*76
$GPGGA,155848.00,1510.38990,N,04924.32550,W,2,12,0.64,13756.7,M,-36.3,M,,*67
$GPRMC,155849.00,A,1510.36145,N,04924.42932,W,376.257,254.34,190120,,,D*75
$GPGGA,155849.00,1510.36145,N,04924.42932,W,2,12,0.64,13756.8,M,-36.3,M,,*68
$GPRMC,155850.00,A,1510.33338,N,04924.53324,W,376.043,254.56,190120,,,D*7E
$GPGGA,155850.00,1510.33338,N,04924.53324,W,2,12,0.70,13757.2,M,-36.4,M,,*69
$GPRMC,155851.00,A,1510.30550,N,04924.63724,W,376.253,254.52,190120,,,D*74
$GPGGA,155851.00,1510.30550,N,04924.63724,W,2,12,0.64,13756.9,M,-36.4,M,,*6B
$GPRMC,155852.00,A,1510.27760,N,04924.74137,W,376.298,254.54,190120,,,D*73
$GPGGA,155852.00,1510.27760,N,04924.74137,W,2,12,0.64,13756.9,M,-36.4,M,,*6D
$GPRMC,155853.00,A,1510.24959,N,04924.84533,W,376.350,254.57,190120,,,D*7C
$GPGGA,155853.00,1510.24959,N,04924.84533,W,2,12,0.64,13756.6,M,-36.4,M,,*6B
$GPRMC,155854.00,A,1510.22161,N,04924.94932,W,376.504,254.53,190120,,,D*71
$GPGGA,155854.00,1510.22161,N,04924.94932,W,2,12,0.64,13756.0,M,-36.4,M,,*63
$GPRMC,155855.00,A,1510.19363,N,04925.05342,W,376.496,254.52,190120,,,D*77
$GPGGA,155855.00,1510.19363,N,04925.05342,W,2,12,0.64,13755.6,M,-36.4,M,,*6B
$GPRMC,155856.00,A,1510.16556,N,04925.15746,W,376.601,254.50,190120,,,D*74
$GPGGA,155856.00,1510.16556,N,04925.15746,W,2,12,0.66,13755.6,M,-36.4,M,,*64
$GPRMC,155857.00,A,1510.13744,N,04925.26152,W,376.643,254.47,190120,,,D*72
$GPGGA,155857.00,1510.13744,N,04925.26152,W,2,12,0.64,13755.7,M,-36.4,M,,*61
$GPRMC,155858.00,A,1510.10924,N,04925.36564,W,376.859,254.42,190120,,,D*76
$GPGGA,155858.00,1510.10924,N,04925.36564,W,2,12,0.64,13755.2,M,-36.4,M,,*60
$GPRMC,155859.00,A,1510.08086,N,04925.46978,W,376.831,254.41,190120,,,D*74
$GPGGA,155859.00,1510.08086,N,04925.46978,W,2,12,0.64,13755.0,M,-36.4,M,,*6D
$GPRMC,155900.00,A,1510.05256,N,04925.57390,W,377.043,254.35,190120,,,D*78
$GPGGA,155900.00,1510.05256,N,04925.57390,W,2,12,0.64,13754.8,M,-36.4,M,,*67
$GPRMC,155901.00,A,1510.02427,N,04925.67809,W,377.112,254.33,190120,,,D*75
$GPGGA,155901.00,1510.02427,N,04925.67809,W,2,12,0.64,13754.5,M,-36.4,M,,*64
$GPRMC,155902.00,A,1509.99589,N,04925.78223,W,377.204,254.30,190120,,,D*72
$GPGGA,155902.00,1509.99589,N,04925.78223,W,2,12,0.64,13754.4,M,-36.4,M,,*65
$GPRMC,155903.00,A,1509.96739,N,04925.88637,W,377.296,254.29,190120,,,D*78
$GPGGA,155903.00,1509.96739,N,04925.88637,W,2,12,0.64,13754.8,M,-36.4,M,,*60
$GPRMC,155904.00,A,1509.93889,N,04925.99050,W,377.420,254.27,190120,,,D*7C
$GPGGA,155904.00,1509.93889,N,04925.99050,W,2,12,0.64,13755.1,M,-36.4,M,,*69
$GPRMC,155905.00,A,1509.91039,N,04926.09464,W,377.439,254.24,190120,,,D*7E
$GPGGA,155905.00,1509.91039,N,04926.09464,W,2,12,0.64,13755.5,M,-36.4,M,,*64
$GPRMC,155906.00,A,1509.88192,N,04926.19875,W,377.459,254.25,190120,,,D*7F
$GPGGA,155906.00,1509.88192,N,04926.19875,W,2,12,0.64,13756.0,M,-36.4,M,,*64
$GPRMC,155907.00,A,1509.85341,N,04926.30288,W,377.393,254.27,190120,,,D*7F
$GPGGA,155907.00,1509.85341,N,04926.30288,W,2,12,0.64,13756.3,M,-36.4,M,,*64
$GPRMC,155908.00,A,1509.82491,N,04926.40706,W,377.469,254.26,190120,,,D*7A
$GPGGA,155908.00,1509.82491,N,04926.40706,W,2,12,0.64,13756.6,M,-36.4,M,,*67
$GPRMC,155909.00,A,1509.79638,N,04926.51127,W,377.377,254.30,190120,,,D*74
$GPGGA,155909.00,1509.79638,N,04926.51127,W,2,12,0.64,13756.9,M,-36.4,M,,*69
$GPRMC,155910.00,A,1509.76788,N,04926.61546,W,377.469,254.29,190120,,,D*79
$GPGGA,155910.00,1509.76788,N,04926.61546,W,2,12,0.64,13756.9,M,-36.4,M,,*64
$GPRMC,155911.00,A,1509.73938,N,04926.71969,W,377.559,254.31,190120,,,D*73
$GPGGA,155911.00,1509.73938,N,04926.71969,W,2,12,0.64,13757.1,M,-36.5,M,,*6D
$GPRMC,155912.00,A,1509.71088,N,04926.82391,W,377.626,254.30,190120,,,D*7B
$GPGGA,155912.00,1509.71088,N,04926.82391,W,2,12,0.64,13757.0,M,-36.5,M,,*6E
$GPRMC,155913.00,A,1509.68239,N,04926.92816,W,377.687,254.29,190120,,,D*7C
$GPGGA,155913.00,1509.68239,N,04926.92816,W,2,12,0.64,13757.0,M,-36.5,M,,*6A
$GPRMC,155914.00,A,1509.65389,N,04927.03240,W,377.746,254.29,190120,,,D*70
$GPGGA,155914.00,1509.65389,N,04927.03240,W,2,12,0.64,13757.2,M,-36.5,M,,*68
$GPRMC,155915.00,A,1509.62541,N,04927.13664,W,377.771,254.30,190120,,,D*7B
$GPGGA,155915.00,1509.62541,N,04927.13664,W,2,12,0.64,13757.1,M,-36.5,M,,*6C
$GPRMC,155916.00,A,1509.59695,N,04927.24091,W,377.642,254.31,190120,,,D*72
$GPGGA,155916.00,1509.59695,N,04927.24091,W,2,12,0.70,13756.9,M,-36.5,M,,*69
$GPRMC,155917.00,A,1509.56847,N,04927.34516,W,377.867,254.31,190120,,,D*7F
$GPGGA,155917.00,1509.56847,N,04927.34516,W,2,12,0.64,13757.0,M,-36.5,M,,*60
$GPRMC,155918.00,A,1509.53999,N,04927.44947,W,378.134,254.29,190120,,,D*71
$GPGGA,155918.00,1509.53999,N,04927.44947,W,2,12,0.64,13756.7,M,-36.5,M,,*61
$GPRMC,155919.00,A,1509.51164,N,04927.55397,W,378.083,254.32,190120,,,D*78
$GPGGA,155919.00,1509.51164,N,04927.55397,W,2,12,0.64,13756.8,M,-36.5,M,,*60
$GPRMC,155920.00,A,1509.48326,N,04927.65826,W,378.208,254.32,190120,,,D*7D
$GPGGA,155920.00,1509.48326,N,04927.65826,W,2,12,0.64,13756.6,M,-36.5,M,,*6A
$GPRMC,155921.00,A,1509.45492,N,04927.76266,W,378.147,254.33,190120,,,D*7C
$GPGGA,155921.00,1509.45492,N,04927.76266,W,2,12,0.64,13757.1,M,-36.5,M,,*64
$GPRMC,155922.00,A,1509.42644,N,04927.86705,W,378.220,254.33,190120,,,D*7C
$GPGGA,155922.00,1509.42644,N,04927.86705,W,2,12,0.66,13757.2,M,-36.5,M,,*67
$GPRMC,155923.00,A,1509.39792,N,04927.97165,W,378.213,254.36,190120,,,D*7E
$GPGGA,155923.00,1509.39792,N,04927.97165,W,2,12,0.64,13757.4,M,-36.5,M,,*64
$GPRMC,155924.00,A,1509.36954,N,04928.07600,W,378.334,254.36,190120,,,D*74
$GPGGA,155924.00,1509.36954,N,04928.07600,W,2,12,0.64,13757.0,M,-36.5,M,,*6E
$GPRMC,155925.00,A,1509.34105,N,04928.18041,W,378.417,254.36,190120,,,D*70
$GPGGA,155925.00,1509.34105,N,04928.18041,W,2,12,0.64,13756.7,M,-36.5,M,,*6A
$GPRMC,155926.00,A,1509.31244,N,04928.28485,W,378.218,254.37,190120,,,D*77
$GPGGA,155926.00,1509.31244,N,04928.28485,W,2,12,0.64,13756.6,M,-36.5,M,,*64
$GPRMC,155927.00,A,1509.28382,N,04928.38948,W,379.961,254.17,190120,,,D*7E
$GPGGA,155927.00,1509.28382,N,04928.38948,W,2,12,0.70,13756.2,M,-36.5,M,,*6A
$GPRMC,155928.00,A,1509.25515,N,04928.49410,W,378.605,254.38,190120,,,D*73
$GPGGA,155928.00,1509.25515,N,04928.49410,W,2,12,0.64,13756.2,M,-36.5,M,,*63
$GPRMC,155929.00,A,1509.22692,N,04928.59829,W,378.538,254.38,190120,,,D*73
$GPGGA,155929.00,1509.22692,N,04928.59829,W,2,12,0.64,13756.1,M,-36.5,M,,*6D
$GPRMC,155930.00,A,1509.19861,N,04928.70296,W,378.538,254.39,190120,,,D*75
$GPGGA,155930.00,1509.19861,N,04928.70296,W,2,12,0.64,13756.4,M,-36.5,M,,*6F
$GPRMC,155931.00,A,1509.17037,N,04928.80749,W,378.620,254.38,190120,,,D*72
$GPGGA,155931.00,1509.17037,N,04928.80749,W,2,12,0.64,13756.2,M,-36.6,M,,*66
$GPRMC,155932.00,A,1509.14196,N,04928.91214,W,378.510,254.43,190120,,,D*79
$GPGGA,155932.00,1509.14196,N,04928.91214,W,2,12,0.64,13756.2,M,-36.6,M,,*61
$GPRMC,155933.00,A,1509.11355,N,04929.01671,W,378.515,254.42,190120,,,D*7B
$GPGGA,155933.00,1509.11355,N,04929.01671,W,2,12,0.64,13756.3,M,-36.6,M,,*66
$GPRMC,155934.00,A,1509.08517,N,04929.12128,W,378.639,254.42,190120,,,D*70
$GPGGA,155934.00,1509.08517,N,04929.12128,W,2,12,0.64,13756.5,M,-36.6,M,,*66
$GPRMC,155935.00,A,1509.05683,N,04929.22584,W,378.658,254.40,190120,,,D*76
$GPGGA,155935.00,1509.05683,N,04929.22584,W,2,12,0.64,13756.8,M,-36.6,M,,*68
$GPRMC,155936.00,A,1509.02851,N,04929.33048,W,378.669,254.42,190120,,,D*76
$GPGGA,155936.00,1509.02851,N,04929.33048,W,2,12,0.64,13757.1,M,-36.6,M,,*60
$GPRMC,155937.00,A,1509.00019,N,04929.43510,W,378.772,254.42,190120,,,D*75
$GPGGA,155937.00,1509.00019,N,04929.43510,W,2,12,0.64,13757.1,M,-36.6,M,,*68
$GPRMC,155938.00,A,1508.97185,N,04929.53971,W,378.829,254.43,190120,,,D*7B
$GPGGA,155938.00,1508.97185,N,04929.53971,W,2,12,0.64,13757.3,M,-36.6,M,,*64
$GPRMC,155939.00,A,1508.94356,N,04929.64433,W,378.821,254.45,190120,,,D*74
$GPGGA,155939.00,1508.94356,N,04929.64433,W,2,12,0.64,13757.4,M,-36.6,M,,*62
$GPRMC,155940.00,A,1508.91527,N,04929.74898,W,378.850,254.44,190120,,,D*74
$GPGGA,155940.00,1508.91527,N,04929.74898,W,2,12,0.64,13757.5,M,-36.6,M,,*64
$GPRMC,155941.00,A,1508.88695,N,04929.85362,W,378.896,254.44,190120,,,D*7D
$GPGGA,155941.00,1508.88695,N,04929.85362,W,2,12,0.64,13757.6,M,-36.6,M,,*64
$GPRMC,155942.00,A,1508.85864,N,04929.95829,W,378.879,254.44,190120,,,D*77
$GPGGA,155942.00,1508.85864,N,04929.95829,W,2,12,0.64,13757.8,M,-36.6,M,,*61
$GPRMC,155943.00,A,1508.83030,N,04930.06296,W,379.008,254.43,190120,,,D*7D
$GPGGA,155943.00,1508.83030,N,04930.06296,W,2,12,0.64,13757.8,M,-36.6,M,,*63
$GPRMC,155944.00,A,1508.80182,N,04930.16766,W,379.387,254.28,190120,,,D*73
$GPGGA,155944.00,1508.80182,N,04930.16766,W,2,12,0.70,13757.9,M,-36.6,M,,*60
$GPRMC,155945.00,A,1508.77338,N,04930.27231,W,378.973,254.41,190120,,,D*73
$GPGGA,155945.00,1508.77338,N,04930.27231,W,2,12,0.64,13757.5,M,-36.6,M,,*66
$GPRMC,155946.00,A,1508.74520,N,04930.37688,W,378.853,254.45,190120,,,D*7C
$GPGGA,155946.00,1508.74520,N,04930.37688,W,2,12,0.64,13757.4,M,-36.6,M,,*6F
$GPRMC,155947.00,A,1508.71696,N,04930.48166,W,379.045,254.39,190120,,,D*7C
$GPGGA,155947.00,1508.71696,N,04930.48166,W,2,12,0.64,13757.6,M,-36.6,M,,*68
$GPRMC,155948.00,A,1508.68837,N,04930.58643,W,378.878,254.34,190120,,,D*75
$GPGGA,155948.00,1508.68837,N,04930.58643,W,2,12,0.67,13758.2,M,-36.6,M,,*63
$GPRMC,155949.00,A,1508.65989,N,04930.69112,W,379.214,254.37,190120,,,D*7E
$GPGGA,155949.00,1508.65989,N,04930.69112,W,2,12,0.64,13758.4,M,-36.6,M,,*6F
$GPRMC,155950.00,A,1508.63145,N,04930.79584,W,379.372,254.35,190120,,,D*71
$GPGGA,155950.00,1508.63145,N,04930.79584,W,2,12,0.71,13758.8,M,-36.6,M,,*6B
$GPRMC,155951.00,A,1508.60292,N,04930.90048,W,379.263,254.36,190120,,,D*7A
$GPGGA,155951.00,1508.60292,N,04930.90048,W,2,12,0.64,13759.8,M,-36.6,M,,*67
$GPRMC,155952.00,A,1508.57445,N,04931.00533,W,379.249,254.37,190120,,,D*79
$GPGGA,155952.00,1508.57445,N,04931.00533,W,2,12,0.66,13760.6,M,-36.7,M,,*6A
$GPRMC,155953.00,A,1508.54599,N,04931.11004,W,379.402,254.36,190120,,,D*72
$GPGGA,155953.00,1508.54599,N,04931.11004,W,2,12,0.66,13760.8,M,-36.7,M,,*67
$GPRMC,155954.00,A,1508.51756,N,04931.21471,W,379.331,254.36,190120,,,D*73
$GPGGA,155954.00,1508.51756,N,04931.21471,W,2,12,0.64,13761.1,M,-36.7,M,,*6B
$GPRMC,155955.00,A,1508.48910,N,04931.31948,W,379.390,254.37,190120,,,D*7A
$GPGGA,155955.00,1508.48910,N,04931.31948,W,2,12,0.64,13761.4,M,-36.7,M,,*6D
$GPRMC,155956.00,A,1508.46059,N,04931.42434,W,379.394,254.36,190120,,,D*74
$GPGGA,155956.00,1508.46059,N,04931.42434,W,2,12,0.64,13761.5,M,-36.7,M,,*67
$GPRMC,155957.00,A,1508.43208,N,04931.52917,W,379.437,254.36,190120,,,D*75
$GPGGA,155957.00,1508.43208,N,04931.52917,W,2,12,0.64,13761.4,M,-36.7,M,,*69
$GPRMC,155958.00,A,1508.40359,N,04931.63389,W,379.414,254.28,190120,,,D*7D
$GPGGA,155958.00,1508.40359,N,04931.63389,W,2,12,0.70,13761.6,M,-36.7,M,,*68
$GPRMC,155959.00,A,1508.37510,N,04931.73863,W,379.640,254.36,190120,,,D*75
$GPGGA,155959.00,1508.37510,N,04931.73863,W,2,12,0.64,13760.9,M,-36.7,M,,*67
$GPRMC,160000.00,A,1508.34658,N,04931.84344,W,379.856,254.36,190120,,,D*75
$GPGGA,160000.00,1508.34658,N,04931.84344,W,2,12,0.64,13760.2,M,-36.7,M,,*65
$GPRMC,160001.00,A,1508.31799,N,04931.94830,W,379.955,254.37,190120,,,D*77
$GPGGA,160001.00,1508.31799,N,04931.94830,W,2,12,0.64,13758.0,M,-36.7,M,,*6D
$GPRMC,160002.00,A,1508.28962,N,04932.05333,W,380.097,254.39,190120,,,D*7A
$GPGGA,160002.00,1508.28962,N,04932.05333,W,2,12,0.64,13755.4,M,-36.7,M,,*66
$GPRMC,160003.00,A,1508.26106,N,04932.15844,W,380.440,254.39,190120,,,D*7B
$GPGGA,160003.00,1508.26106,N,04932.15844,W,2,12,0.64,13750.5,M,-36.7,M,,*6D
$GPRMC,160004.00,A,1508.23265,N,04932.26354,W,380.606,254.40,190120,,,D*7B
$GPGGA,160004.00,1508.23265,N,04932.26354,W,2,12,0.64,13745.0,M,-36.7,M,,*62
$GPRMC,160005.00,A,1508.20417,N,04932.36868,W,380.684,254.41,190120,,,D*74
$GPGGA,160005.00,1508.20417,N,04932.36868,W,2,12,0.64,13738.5,M,-36.7,M,,*69
$GPRMC,160006.00,A,1508.17573,N,04932.47379,W,380.723,254.45,190120,,,D*75
$GPGGA,160006.00,1508.17573,N,04932.47379,W,2,12,0.64,13731.4,M,-36.7,M,,*68
$GPRMC,160007.00,A,1508.14736,N,04932.57896,W,380.892,254.46,190120,,,D*79
$GPGGA,160007.00,1508.14736,N,04932.57896,W,2,12,0.64,13723.7,M,-36.7,M,,*62
$GPRMC,160008.00,A,1508.11897,N,04932.68415,W,380.774,254.47,190120,,,D*7A
$GPGGA,160008.00,1508.11897,N,04932.68415,W,2,12,0.64,13716.2,M,-36.7,M,,*64
$GPRMC,160009.00,A,1508.09051,N,04932.78937,W,380.747,254.48,190120,,,D*73
$GPGGA,160009.00,1508.09051,N,04932.78937,W,2,12,0.64,13709.1,M,-36.7,M,,*6F
$GPRMC,160010.00,A,1508.06233,N,04932.89453,W,380.755,254.49,190120,,,D*71
$GPGGA,160010.00,1508.06233,N,04932.89453,W,2,12,0.64,13701.3,M,-36.7,M,,*65
$GPRMC,160011.00,A,1508.03408,N,04932.99967,W,380.576,254.49,190120,,,D*73
$GPGGA,160011.00,1508.03408,N,04932.99967,W,2,12,0.64,13694.0,M,-36.7,M,,*6A
$GPRMC,160012.00,A,1508.00564,N,04933.10477,W,380.615,254.47,190120,,,D*7C
$GPGGA,160012.00,1508.00564,N,04933.10477,W,2,12,0.64,13686.7,M,-36.7,M,,*69
$GPRMC,160013.00,A,1507.97717,N,04933.20998,W,380.410,254.47,190120,,,D*72
$GPGGA,160013.00,1507.97717,N,04933.20998,W,2,12,0.64,13679.8,M,-36.8,M,,*60
$GPRMC,160014.00,A,1507.94871,N,04933.31520,W,380.653,254.38,190120,,,D*7B
$GPGGA,160014.00,1507.94871,N,04933.31520,W,2,12,0.64,13672.7,M,-36.8,M,,*60
$GPRMC,160015.00,A,1507.92012,N,04933.42022,W,380.438,254.38,190120,,,D*7D
$GPGGA,160015.00,1507.92012,N,04933.42022,W,2,12,0.64,13665.9,M,-36.8,M,,*61
$GPRMC,160016.00,A,1507.89149,N,04933.52526,W,380.447,254.34,190120,,,D*7F
$GPGGA,160016.00,1507.89149,N,04933.52526,W,2,12,0.64,13658.7,M,-36.8,M,,*67
$GPRMC,160017.00,A,1507.86296,N,04933.63028,W,380.294,254.35,190120,,,D*70
$GPGGA,160017.00,1507.86296,N,04933.63028,W,2,12,0.64,13651.1,M,-36.8,M,,*6E
$GPRMC,160018.00,A,1507.83434,N,04933.73534,W,380.379,254.31,190120,,,D*7B
$GPGGA,160018.00,1507.83434,N,04933.73534,W,2,12,0.64,13643.4,M,-36.8,M,,*65
$GPRMC,160019.00,A,1507.80567,N,04933.84016,W,380.289,254.28,190120,,,D*75
$GPGGA,160019.00,1507.80567,N,04933.84016,W,2,12,0.64,13635.8,M,-36.8,M,,*60
$GPRMC,160020.00,A,1507.77716,N,04933.94519,W,380.170,254.29,190120,,,D*7C
$GPGGA,160020.00,1507.77716,N,04933.94519,W,2,12,0.70,13627.8,M,-36.8,M,,*6B
$GPRMC,160021.00,A,1507.74868,N,04934.05010,W,380.029,254.28,190120,,,D*77
$GPGGA,160021.00,1507.74868,N,04934.05010,W,2,12,0.64,13620.1,M,-36.8,M,,*67
$GPRMC,160022.00,A,1507.72002,N,04934.15492,W,379.959,254.28,190120,,,D*71
$GPGGA,160022.00,1507.72002,N,04934.15492,W,2,12,0.64,13612.5,M,-36.8,M,,*6C
$GPRMC,160023.00,A,1507.69134,N,04934.25977,W,379.906,254.31,190120,,,D*79
$GPGGA,160023.00,1507.69134,N,04934.25977,W,2,12,0.69,13605.1,M,-36.8,M,,*69
$GPRMC,160024.00,A,1507.66260,N,04934.36457,W,379.688,254.29,190120,,,D*7E
$GPGGA,160024.00,1507.66260,N,04934.36457,W,2,12,0.64,13597.5,M,-36.8,M,,*6F
$GPRMC,160025.00,A,1507.63403,N,04934.46941,W,379.617,254.30,190120,,,D*7A
$GPGGA,160025.00,1507.63403,N,04934.46941,W,2,12,0.64,13589.5,M,-36.8,M,,*6A
$GPRMC,160026.00,A,1507.60533,N,04934.57425,W,379.645,254.30,190120,,,D*70
$GPGGA,160026.00,1507.60533,N,04934.57425,W,2,12,0.64,13581.4,M,-36.8,M,,*6E
$GPRMC,160027.00,A,1507.57657,N,04934.67887,W,379.568,254.30,190120,,,D*7F
$GPGGA,160027.00,1507.57657,N,04934.67887,W,2,12,0.64,13573.5,M,-36.8,M,,*61
$GPRMC,160028.00,A,1507.54792,N,04934.78369,W,379.571,254.31,190120,,,D*77
$GPGGA,160028.00,1507.54792,N,04934.78369,W,2,12,0.64,13565.7,M,-36.8,M,,*65
$GPRMC,160029.00,A,1507.51935,N,04934.88851,W,379.474,254.31,190120,,,D*7B
$GPGGA,160029.00,1507.51935,N,04934.88851,W,2,12,0.64,13557.9,M,-36.8,M,,*62
$GPRMC,160030.00,A,1507.49073,N,04934.99329,W,379.519,254.32,190120,,,D*7C
$GPGGA,160030.00,1507.49073,N,04934.99329,W,2,12,0.64,13550.2,M,-36.8,M,,*60
$GPRMC,160031.00,A,1507.46222,N,04935.09802,W,379.533,254.32,190120,,,D*76
$GPGGA,160031.00,1507.46222,N,04935.09802,W,2,12,0.64,13542.8,M,-36.8,M,,*6B
$GPRMC,160032.00,A,1507.43370,N,04935.20279,W,379.529,254.31,190120,,,D*73
$GPGGA,160032.00,1507.43370,N,04935.20279,W,2,12,0.64,13535.1,M,-36.8,M,,*6F
$GPRMC,160033.00,A,1507.40522,N,04935.30753,W,379.512,254.32,190120,,,D*77
$GPGGA,160033.00,1507.40522,N,04935.30753,W,2,12,0.64,13527.5,M,-36.8,M,,*67
$GPRMC,160034.00,A,1507.37678,N,04935.41228,W,379.383,254.35,190120,,,D*7A
$GPGGA,160034.00,1507.37678,N,04935.41228,W,2,12,0.64,13519.7,M,-36.9,M,,*6D
$GPRMC,160035.00,A,1507.34836,N,04935.51702,W,379.290,254.39,190120,,,D*7F
$GPGGA,160035.00,1507.34836,N,04935.51702,W,2,12,0.64,13511.9,M,-36.9,M,,*61
$GPRMC,160036.00,A,1507.31997,N,04935.62179,W,379.275,254.39,190120,,,D*72
$GPGGA,160036.00,1507.31997,N,04935.62179,W,2,12,0.64,13504.1,M,-36.9,M,,*6B
$GPRMC,160037.00,A,1507.29160,N,04935.72653,W,379.260,254.41,190120,,,D*7F
$GPGGA,160037.00,1507.29160,N,04935.72653,W,2,12,0.64,13496.3,M,-36.9,M,,*65
$GPRMC,160038.00,A,1507.26324,N,04935.83127,W,379.226,254.44,190120,,,D*70
$GPGGA,160038.00,1507.26324,N,04935.83127,W,2,12,0.64,13488.5,M,-36.9,M,,*64
$GPRMC,160039.00,A,1507.23492,N,04935.93602,W,379.073,254.47,190120,,,D*7E
$GPGGA,160039.00,1507.23492,N,04935.93602,W,2,12,0.64,13481.0,M,-36.9,M,,*67
$GPRMC,160040.00,A,1507.20661,N,04936.04077,W,379.097,254.46,190120,,,D*7F
$GPGGA,160040.00,1507.20661,N,04936.04077,W,2,12,0.64,13473.4,M,-36.9,M,,*64
$GPRMC,160041.00,A,1507.17827,N,04936.14552,W,379.136,254.44,190120,,,D*7D
$GPGGA,160041.00,1507.17827,N,04936.14552,W,2,12,0.64,13465.8,M,-36.9,M,,*65
$GPRMC,160042.00,A,1507.14988,N,04936.25028,W,379.088,254.42,190120,,,D*71
$GPGGA,160042.00,1507.14988,N,04936.25028,W,2,12,0.64,13458.1,M,-36.9,M,,*6C
$GPRMC,160043.00,A,1507.12150,N,04936.35495,W,379.024,254.42,190120,,,D*7E
$GPGGA,160043.00,1507.12150,N,04936.35495,W,2,12,0.64,13450.4,M,-36.9,M,,*68
$GPRMC,160044.00,A,1507.09310,N,04936.45966,W,379.184,254.38,190120,,,D*75
$GPGGA,160044.00,1507.09310,N,04936.45966,W,2,12,0.64,13442.7,M,-36.9,M,,*65
$GPRMC,160045.00,A,1507.06469,N,04936.56437,W,379.155,254.37,190120,,,D*7A
$GPGGA,160045.00,1507.06469,N,04936.56437,W,2,12,0.64,13435.0,M,-36.9,M,,*6E
$GPRMC,160046.00,A,1507.03628,N,04936.66906,W,379.190,254.34,190120,,,D*7D
$GPGGA,160046.00,1507.03628,N,04936.66906,W,2,12,0.64,13427.3,M,-36.9,M,,*63
$GPRMC,160047.00,A,1507.00783,N,04936.77374,W,379.203,254.35,190120,,,D*78
$GPGGA,160047.00,1507.00783,N,04936.77374,W,2,12,0.64,13419.7,M,-36.9,M,,*67
$GPRMC,160048.00,A,1506.97939,N,04936.87843,W,379.262,254.35,190120,,,D*70
$GPGGA,160048.00,1506.97939,N,04936.87843,W,2,12,0.64,13412.0,M,-36.9,M,,*64
$GPRMC,160049.00,A,1506.95087,N,04936.98312,W,379.248,254.33,190120,,,D*70
$GPGGA,160049.00,1506.95087,N,04936.98312,W,2,12,0.64,13404.3,M,-36.9,M,,*6E
$GPRMC,160050.00,A,1506.92234,N,04937.08782,W,379.195,254.34,190120,,,D*74
$GPGGA,160050.00,1506.92234,N,04937.08782,W,2,12,0.64,13396.7,M,-36.9,M,,*66
$GPRMC,160051.00,A,1506.89376,N,04937.19250,W,379.288,254.33,190120,,,D*7A
$GPGGA,160051.00,1506.89376,N,04937.19250,W,2,12,0.64,13389.1,M,-36.9,M,,*68
$GPRMC,160052.00,A,1506.86521,N,04937.29719,W,379.266,254.34,190120,,,D*7E
$GPGGA,160052.00,1506.86521,N,04937.29719,W,2,12,0.64,13381.5,M,-36.9,M,,*67
$GPRMC,160053.00,A,1506.83669,N,04937.40189,W,379.325,254.34,190120,,,D*73
$GPGGA,160053.00,1506.83669,N,04937.40189,W,2,12,0.64,13374.0,M,-36.9,M,,*63
$GPRMC,160054.00,A,1506.80811,N,04937.50659,W,379.245,254.36,190120,,,D*78
$GPGGA,160054.00,1506.80811,N,04937.50659,W,2,12,0.64,13366.6,M,-37.0,M,,*60
$GPRMC,160055.00,A,1506.77956,N,04937.61132,W,379.244,254.34,190120,,,D*78
$GPGGA,160055.00,1506.77956,N,04937.61132,W,2,12,0.64,13359.0,M,-37.0,M,,*69
$GPRMC,160056.00,A,1506.75101,N,04937.71604,W,379.374,254.34,190120,,,D*72
$GPGGA,160056.00,1506.75101,N,04937.71604,W,2,12,0.64,13351.4,M,-37.0,M,,*6D
$GPRMC,160057.00,A,1506.72243,N,04937.82079,W,379.517,254.31,190120,,,D*77
$GPGGA,160057.00,1506.72243,N,04937.82079,W,2,12,0.64,13343.8,M,-37.0,M,,*61
$GPRMC,160058.00,A,1506.69383,N,04937.92554,W,379.475,254.32,190120,,,D*72
$GPGGA,160058.00,1506.69383,N,04937.92554,W,2,12,0.64,13336.3,M,-37.0,M,,*6B
$GPRMC,160059.00,A,1506.66524,N,04938.03031,W,379.655,254.33,190120,,,D*77
$GPGGA,160059.00,1506.66524,N,04938.03031,W,2,12,0.64,13328.7,M,-37.0,M,,*64
$GPRMC,160100.00,A,1506.63660,N,04938.13511,W,379.734,254.30,190120,,,D*7F
$GPGGA,160100.00,1506.63660,N,04938.13511,W,2,12,0.64,13321.2,M,-37.0,M,,*65
$GPRMC,160101.00,A,1506.60793,N,04938.23992,W,379.703,254.29,190120,,,D*78
$GPGGA,160101.00,1506.60793,N,04938.23992,W,2,12,0.64,13313.7,M,-37.0,M,,*6A
$GPRMC,160102.00,A,1506.57925,N,04938.34472,W,379.730,254.30,190120,,,D*71
$GPGGA,160102.00,1506.57925,N,04938.34472,W,2,12,0.64,13306.3,M,-37.0,M,,*6B
$GPRMC,160103.00,A,1506.55063,N,04938.44956,W,379.971,254.29,190120,,,D*76
$GPGGA,160103.00,1506.55063,N,04938.44956,W,2,12,0.64,13298.7,M,-37.0,M,,*6D
$GPRMC,160104.00,A,1506.52193,N,04938.55441,W,379.960,254.28,190120,,,D*72
$GPGGA,160104.00,1506.52193,N,04938.55441,W,2,12,0.64,13291.1,M,-37.0,M,,*67
$GPRMC,160105.00,A,1506.49323,N,04938.65928,W,380.022,254.30,190120,,,D*71
$GPGGA,160105.00,1506.49323,N,04938.65928,W,2,12,0.64,13283.4,M,-37.0,M,,*62
$GPRMC,160106.00,A,1506.46456,N,04938.76417,W,380.097,254.32,190120,,,D*77
$GPGGA,160106.00,1506.46456,N,04938.76417,W,2,12,0.64,13275.6,M,-37.0,M,,*63
$GPRMC,160107.00,A,1506.43592,N,04938.86909,W,380.106,254.33,190120,,,D*7F
$GPGGA,160107.00,1506.43592,N,04938.86909,W,2,12,0.64,13268.0,M,-37.0,M,,*69
$GPRMC,160108.00,A,1506.40727,N,04938.97403,W,380.178,254.34,190120,,,D*76
$GPGGA,160108.00,1506.40727,N,04938.97403,W,2,12,0.64,13260.4,M,-37.0,M,,*62
$GPRMC,160109.00,A,1506.37864,N,04939.07901,W,380.279,254.32,190120,,,D*7C
$GPGGA,160109.00,1506.37864,N,04939.07901,W,2,12,0.64,13252.8,M,-37.0,M,,*61
$GPRMC,160110.00,A,1506.34999,N,04939.18399,W,380.449,254.30,190120,,,D*76
$GPGGA,160110.00,1506.34999,N,04939.18399,W,2,12,0.64,13245.3,M,-37.0,M,,*61
$GPRMC,160111.00,A,1506.32132,N,04939.28900,W,380.529,254.30,190120,,,D*76
$GPGGA,160111.00,1506.32132,N,04939.28900,W,2,12,0.64,13237.7,M,-37.0,M,,*67
$GPRMC,160112.00,A,1506.29262,N,04939.39405,W,380.610,254.28,190120,,,D*71
$GPGGA,160112.00,1506.29262,N,04939.39405,W,2,12,0.64,13229.8,M,-37.0,M,,*60
$GPRMC,160113.00,A,1506.26389,N,04939.49911,W,380.781,254.28,190120,,,D*7D
$GPGGA,160113.00,1506.26389,N,04939.49911,W,2,12,0.64,13221.7,M,-37.0,M,,*62
$GPRMC,160114.00,A,1506.23509,N,04939.60423,W,380.799,254.30,190120,,,D*76
$GPGGA,160114.00,1506.23509,N,04939.60423,W,2,12,0.64,13213.4,M,-37.0,M,,*6B
$GPRMC,160115.00,A,1506.20633,N,04939.70936,W,380.923,254.29,190120,,,D*71
$GPGGA,160115.00,1506.20633,N,04939.70936,W,2,12,0.64,13204.9,M,-37.1,M,,*61
$GPRMC,160116.00,A,1506.17758,N,04939.81454,W,381.088,254.33,190120,,,D*7F
$GPGGA,160116.00,1506.17758,N,04939.81454,W,2,12,0.64,13196.3,M,-37.1,M,,*6F
$GPRMC,160117.00,A,1506.14888,N,04939.91972,W,381.115,254.31,190120,,,D*70
$GPGGA,160117.00,1506.14888,N,04939.91972,W,2,12,0.64,13187.8,M,-37.1,M,,*6C
$GPRMC,160118.00,A,1506.12016,N,04940.02497,W,381.351,254.28,190120,,,D*7E
$GPGGA,160118.00,1506.12016,N,04940.02497,W,2,12,0.64,13179.5,M,-37.1,M,,*64
$GPRMC,160119.00,A,1506.09134,N,04940.13021,W,381.416,254.29,190120,,,D*78
$GPGGA,160119.00,1506.09134,N,04940.13021,W,2,12,0.64,13171.5,M,-37.1,M,,*6F
$GPRMC,160120.00,A,1506.06253,N,04940.23545,W,381.465,254.29,190120,,,D*7F
$GPGGA,160120.00,1506.06253,N,04940.23545,W,2,12,0.64,13163.3,M,-37.1,M,,*69
$GPRMC,160121.00,A,1506.03371,N,04940.34076,W,381.618,254.29,190120,,,D*71
$GPGGA,160121.00,1506.03371,N,04940.34076,W,2,12,0.64,13155.3,M,-37.1,M,,*6A
$GPRMC,160122.00,A,1506.00485,N,04940.44611,W,381.769,254.25,190120,,,D*76
$GPGGA,160122.00,1506.00485,N,04940.44611,W,2,12,0.64,13147.2,M,-37.1,M,,*64
$GPRMC,160123.00,A,1505.97590,N,04940.55146,W,381.976,254.17,190120,,,D*7B
$GPGGA,160123.00,1505.97590,N,04940.55146,W,2,12,0.64,13138.9,M,-37.1,M,,*6B
$GPRMC,160124.00,A,1505.94665,N,04940.65682,W,382.247,254.00,190120,,,D*76
$GPGGA,160124.00,1505.94665,N,04940.65682,W,2,12,0.64,13130.8,M,-37.1,M,,*63
$GPRMC,160125.00,A,1505.91709,N,04940.76215,W,382.638,253.79,190120,,,D*74
$GPGGA,160125.00,1505.91709,N,04940.76215,W,2,12,0.64,13122.7,M,-37.1,M,,*68
$GPRMC,160126.00,A,1505.88709,N,04940.86744,W,383.004,253.50,190120,,,D*72
$GPGGA,160126.00,1505.88709,N,04940.86744,W,2,12,0.64,13114.5,M,-37.1,M,,*6A
$GPRMC,160127.00,A,1505.85651,N,04940.97271,W,383.338,253.28,190120,,,D*72
$GPGGA,160127.00,1505.85651,N,04940.97271,W,2,12,0.64,13106.4,M,-37.1,M,,*6B
$GPRMC,160128.00,A,1505.82551,N,04941.07801,W,383.741,253.05,190120,,,D*79
$GPGGA,160128.00,1505.82551,N,04941.07801,W,2,12,0.64,13098.2,M,-37.1,M,,*65
$GPRMC,160129.00,A,1505.79406,N,04941.18331,W,384.070,252.85,190120,,,D*72
$GPGGA,160129.00,1505.79406,N,04941.18331,W,2,12,0.64,13090.1,M,-37.1,M,,*6E
$GPRMC,160130.00,A,1505.76232,N,04941.28855,W,384.420,252.69,190120,,,D*7D
$GPGGA,160130.00,1505.76232,N,04941.28855,W,2,12,0.64,13082.0,M,-37.1,M,,*60
$GPRMC,160131.00,A,1505.73031,N,04941.39376,W,384.668,252.57,190120,,,D*71
$GPGGA,160131.00,1505.73031,N,04941.39376,W,2,12,0.64,13073.8,M,-37.1,M,,*69
$GPRMC,160132.00,A,1505.69816,N,04941.49894,W,384.896,252.49,190120,,,D*74
$GPGGA,160132.00,1505.69816,N,04941.49894,W,2,12,0.64,13065.8,M,-37.1,M,,*6B
$GPRMC,160133.00,A,1505.66586,N,04941.60415,W,385.079,252.43,190120,,,D*72
$GPGGA,160133.00,1505.66586,N,04941.60415,W,2,12,0.64,13057.6,M,-37.1,M,,*60
$GPRMC,160134.00,A,1505.63338,N,04941.70936,W,385.186,252.37,190120,,,D*7C
$GPGGA,160134.00,1505.63338,N,04941.70936,W,2,12,0.64,13049.5,M,-37.1,M,,*60
$GPRMC,160135.00,A,1505.60078,N,04941.81463,W,385.493,252.31,190120,,,D*7D
$GPGGA,160135.00,1505.60078,N,04941.81463,W,2,12,0.64,13041.4,M,-37.2,M,,*6C
$GPRMC,160136.00,A,1505.56811,N,04941.91994,W,385.678,252.26,190120,,,D*79
$GPGGA,160136.00,1505.56811,N,04941.91994,W,2,12,0.64,13033.3,M,-37.2,M,,*6B
$GPRMC,160137.00,A,1505.53527,N,04942.02524,W,385.817,252.22,190120,,,D*78
$GPGGA,160137.00,1505.53527,N,04942.02524,W,2,12,0.64,13025.2,M,-37.2,M,,*6F
$GPRMC,160138.00,A,1505.50234,N,04942.13057,W,385.954,252.18,190120,,,D*7F
$GPGGA,160138.00,1505.50234,N,04942.13057,W,2,12,0.64,13017.1,M,-37.2,M,,*65
$GPRMC,160139.00,A,1505.46942,N,04942.23591,W,386.137,252.12,190120,,,D*7B
$GPGGA,160139.00,1505.46942,N,04942.23591,W,2,12,0.64,13009.0,M,-37.2,M,,*6B
$GPRMC,160140.00,A,1505.43634,N,04942.34132,W,386.395,252.09,190120,,,D*75
$GPGGA,160140.00,1505.43634,N,04942.34132,W,2,12,0.64,13000.8,M,-37.2,M,,*64
$GPRMC,160141.00,A,1505.40320,N,04942.44679,W,386.475,252.07,190120,,,D*7F
$GPGGA,160141.00,1505.40320,N,04942.44679,W,2,12,0.64,12992.7,M,-37.2,M,,*65
$GPRMC,160142.00,A,1505.37003,N,04942.55227,W,386.659,252.06,190120,,,D*7C
$GPGGA,160142.00,1505.37003,N,04942.55227,W,2,12,0.64,12984.4,M,-37.2,M,,*6F
$GPRMC,160143.00,A,1505.33683,N,04942.65779,W,386.879,252.04,190120,,,D*74
$GPGGA,160143.00,1505.33683,N,04942.65779,W,2,12,0.64,12975.8,M,-37.2,M,,*6B
$GPRMC,160144.00,A,1505.30365,N,04942.76333,W,386.973,252.05,190120,,,D*7F
$GPGGA,160144.00,1505.30365,N,04942.76333,W,2,12,0.64,12967.0,M,-37.2,M,,*61
$GPRMC,160145.00,A,1505.27049,N,04942.86887,W,386.998,252.09,190120,,,D*77
$GPGGA,160145.00,1505.27049,N,04942.86887,W,2,12,0.64,12958.1,M,-37.2,M,,*6D
$GPRMC,160146.00,A,1505.23732,N,04942.97446,W,387.218,252.08,190120,,,D*79
$GPGGA,160146.00,1505.23732,N,04942.97446,W,2,12,0.64,12949.0,M,-37.2,M,,*61
$GPRMC,160147.00,A,1505.20415,N,04943.08009,W,387.273,252.10,190120,,,D*71
$GPGGA,160147.00,1505.20415,N,04943.08009,W,2,12,0.64,12940.2,M,-37.2,M,,*66
$GPRMC,160148.00,A,1505.17097,N,04943.18569,W,387.457,252.06,190120,,,D*71
$GPGGA,160148.00,1505.17097,N,04943.18569,W,2,12,0.64,12931.2,M,-37.2,M,,*67
$GPRMC,160149.00,A,1505.13770,N,04943.29131,W,387.419,252.09,190120,,,D*74
$GPGGA,160149.00,1505.13770,N,04943.29131,W,2,12,0.64,12922.7,M,-37.2,M,,*60
$GPRMC,160150.00,A,1505.10447,N,04943.39697,W,387.435,252.10,190120,,,D*74
$GPGGA,160150.00,1505.10447,N,04943.39697,W,2,12,0.64,12914.2,M,-37.2,M,,*66
$GPRMC,160151.00,A,1505.07131,N,04943.50271,W,387.566,252.11,190120,,,D*72
$GPGGA,160151.00,1505.07131,N,04943.50271,W,2,12,0.64,12905.6,M,-37.2,M,,*62
$GPRMC,160152.00,A,1505.03819,N,04943.60851,W,387.550,252.17,190120,,,D*7E
$GPGGA,160152.00,1505.03819,N,04943.60851,W,2,12,0.64,12896.9,M,-37.2,M,,*69
$GPRMC,160153.00,A,1505.00518,N,04943.71431,W,387.580,252.23,190120,,,D*70
$GPGGA,160153.00,1505.00518,N,04943.71431,W,2,12,0.64,12887.7,M,-37.2,M,,*63
$GPRMC,160154.00,A,1504.97223,N,04943.82015,W,387.554,252.30,190120,,,D*72
$GPGGA,160154.00,1504.97223,N,04943.82015,W,2,12,0.64,12878.4,M,-37.2,M,,*69
$GPRMC,160155.00,A,1504.93934,N,04943.92602,W,387.794,252.31,190120,,,D*74
$GPGGA,160155.00,1504.93934,N,04943.92602,W,2,12,0.64,12868.8,M,-37.2,M,,*6D
$GPRMC,160156.00,A,1504.90647,N,04944.03196,W,387.944,252.31,190120,,,D*79
$GPGGA,160156.00,1504.90647,N,04944.03196,W,2,12,0.64,12859.3,M,-37.3,M,,*6B
$GPRMC,160157.00,A,1504.87362,N,04944.13791,W,388.035,252.33,190120,,,D*7E
$GPGGA,160157.00,1504.87362,N,04944.13791,W,2,12,0.64,12850.1,M,-37.3,M,,*65
$GPRMC,160158.00,A,1504.84080,N,04944.24390,W,388.097,252.33,190120,,,D*74
$GPGGA,160158.00,1504.84080,N,04944.24390,W,2,12,0.64,12840.9,M,-37.3,M,,*6E
$GPRMC,160159.00,A,1504.80797,N,04944.34997,W,388.139,252.37,190120,,,D*7D
$GPGGA,160159.00,1504.80797,N,04944.34997,W,2,12,0.64,12831.8,M,-37.3,M,,*61
$GPRMC,160200.00,A,1504.77518,N,04944.45605,W,388.125,252.38,190120,,,D*7F
$GPGGA,160200.00,1504.77518,N,04944.45605,W,2,12,0.64,12822.8,M,-37.3,M,,*63
$GPRMC,160201.00,A,1504.74239,N,04944.56214,W,388.269,252.35,190120,,,D*79
$GPGGA,160201.00,1504.74239,N,04944.56214,W,2,12,0.64,12813.8,M,-37.3,M,,*61
$GPRMC,160202.00,A,1504.70957,N,04944.66824,W,388.360,252.31,190120,,,D*7B
$GPGGA,160202.00,1504.70957,N,04944.66824,W,2,12,0.64,12804.9,M,-37.3,M,,*68
$GPRMC,160203.00,A,1504.67674,N,04944.77435,W,388.519,252.29,190120,,,D*7F
$GPGGA,160203.00,1504.67674,N,04944.77435,W,2,12,0.64,12795.9,M,-37.3,M,,*6A
$GPRMC,160204.00,A,1504.64382,N,04944.88043,W,388.454,252.30,190120,,,D*72
$GPGGA,160204.00,1504.64382,N,04944.88043,W,2,12,0.64,12787.0,M,-37.3,M,,*6D
$GPRMC,160205.00,A,1504.61086,N,04944.98654,W,388.486,252.29,190120,,,D*77
$GPGGA,160205.00,1504.61086,N,04944.98654,W,2,12,0.64,12778.0,M,-37.3,M,,*6F
$GPRMC,160206.00,A,1504.57785,N,04945.09265,W,388.563,252.26,190120,,,D*7F
$GPGGA,160206.00,1504.57785,N,04945.09265,W,2,12,0.64,12768.8,M,-37.3,M,,*6B
$GPRMC,160207.00,A,1504.54477,N,04945.19875,W,388.712,252.21,190120,,,D*7A
$GPGGA,160207.00,1504.54477,N,04945.19875,W,2,12,0.64,12759.6,M,-37.3,M,,*61
$GPRMC,160208.00,A,1504.51166,N,04945.30485,W,388.737,252.18,190120,,,D*70
$GPGGA,160208.00,1504.51166,N,04945.30485,W,2,12,0.64,12750.5,M,-37.3,M,,*6C
$GPRMC,160209.00,A,1504.47851,N,04945.41091,W,388.844,252.17,190120,,,D*78
$GPGGA,160209.00,1504.47851,N,04945.41091,W,2,12,0.64,12741.6,M,-37.3,M,,*63
$GPRMC,160210.00,A,1504.44532,N,04945.51698,W,388.785,252.15,190120,,,D*75
$GPGGA,160210.00,1504.44532,N,04945.51698,W,2,12,0.64,12732.7,M,-37.3,M,,*6B
$GPRMC,160211.00,A,1504.41212,N,04945.62307,W,388.843,252.15,190120,,,D*72
$GPGGA,160211.00,1504.41212,N,04945.62307,W,2,12,0.64,12723.9,M,-37.3,M,,*67
$GPRMC,160212.00,A,1504.37891,N,04945.72918,W,388.756,252.16,190120,,,D*7C
$GPGGA,160212.00,1504.37891,N,04945.72918,W,2,12,0.64,12715.0,M,-37.3,M,,*6D
$GPRMC,160213.00,A,1504.34577,N,04945.83526,W,388.871,252.15,190120,,,D*7D
$GPGGA,160213.00,1504.34577,N,04945.83526,W,2,12,0.64,12705.7,M,-37.3,M,,*63
$GPRMC,160214.00,A,1504.31266,N,04945.94133,W,388.812,252.18,190120,,,D*76
$GPGGA,160214.00,1504.31266,N,04945.94133,W,2,12,0.64,12696.3,M,-37.3,M,,*6F
$GPRMC,160215.00,A,1504.27961,N,04946.04739,W,388.899,252.17,190120,,,D*76
$GPGGA,160215.00,1504.27961,N,04946.04739,W,2,12,0.64,12686.6,M,-37.3,M,,*67
$GPRMC,160216.00,A,1504.24654,N,04946.15346,W,388.900,252.18,190120,,,D*7D
$GPGGA,160216.00,1504.24654,N,04946.15346,W,2,12,0.64,12677.3,M,-37.4,M,,*6E
$GPRMC,160217.00,A,1504.21337,N,04946.25957,W,388.787,252.18,190120,,,D*71
$GPGGA,160217.00,1504.21337,N,04946.25957,W,2,12,0.64,12667.8,M,-37.4,M,,*69
$GPRMC,160218.00,A,1504.18005,N,04946.36584,W,390.236,252.05,190120,,,D*7C
$GPGGA,160218.00,1504.18005,N,04946.36584,W,2,12,0.70,12658.7,M,-37.4,M,,*68
$GPRMC,160219.00,A,1504.14703,N,04946.47175,W,388.709,252.20,190120,,,D*7B
$GPGGA,160219.00,1504.14703,N,04946.47175,W,2,12,0.64,12649.1,M,-37.4,M,,*6B
$GPRMC,160220.00,A,1504.11390,N,04946.57788,W,388.549,252.22,190120,,,D*7B
$GPGGA,160220.00,1504.11390,N,04946.57788,W,2,12,0.64,12639.8,M,-37.4,M,,*61
$GPRMC,160221.00,A,1504.08073,N,04946.68399,W,388.517,252.24,190120,,,D*79
$GPGGA,160221.00,1504.08073,N,04946.68399,W,2,12,0.64,12630.5,M,-37.4,M,,*6A
$GPRMC,160222.00,A,1504.04796,N,04946.78997,W,388.452,252.28,190120,,,D*73
$GPGGA,160222.00,1504.04796,N,04946.78997,W,2,12,0.64,12621.4,M,-37.4,M,,*6D
$GPRMC,160223.00,A,1504.01512,N,04946.89594,W,388.341,252.27,190120,,,D*72
$GPGGA,160223.00,1504.01512,N,04946.89594,W,2,12,0.64,12612.4,M,-37.4,M,,*66
$GPRMC,160224.00,A,1503.98227,N,04947.00201,W,388.193,252.32,190120,,,D*71
$GPGGA,160224.00,1503.98227,N,04947.00201,W,2,12,0.64,12603.4,M,-37.4,M,,*6C
$GPRMC,160225.00,A,1503.94924,N,04947.10811,W,388.118,252.30,190120,,,D*7F
$GPGGA,160225.00,1503.94924,N,04947.10811,W,2,12,0.64,12594.2,M,-37.4,M,,*68
$GPRMC,160226.00,A,1503.91646,N,04947.21417,W,388.159,252.30,190120,,,D*7F
$GPGGA,160226.00,1503.91646,N,04947.21417,W,2,12,0.64,12584.4,M,-37.4,M,,*6A
$GPRMC,160227.00,A,1503.88359,N,04947.32009,W,388.160,252.31,190120,,,D*7F
$GPGGA,160227.00,1503.88359,N,04947.32009,W,2,12,0.64,12574.7,M,-37.4,M,,*6D
$GPRMC,160228.00,A,1503.85068,N,04947.42617,W,388.036,252.34,190120,,,D*75
$GPGGA,160228.00,1503.85068,N,04947.42617,W,2,12,0.64,12565.3,M,-37.4,M,,*64
$GPRMC,160229.00,A,1503.81786,N,04947.53210,W,387.856,252.36,190120,,,D*77
$GPGGA,160229.00,1503.81786,N,04947.53210,W,2,12,0.64,12555.7,M,-37.4,M,,*62
$GPRMC,160230.00,A,1503.78508,N,04947.63805,W,387.686,252.36,190120,,,D*73
$GPGGA,160230.00,1503.78508,N,04947.63805,W,2,12,0.64,12546.4,M,-37.4,M,,*64
$GPRMC,160231.00,A,1503.75229,N,04947.74398,W,387.708,252.34,190120,,,D*77
$GPGGA,160231.00,1503.75229,N,04947.74398,W,2,12,0.64,12537.2,M,-37.4,M,,*65
$GPRMC,160232.00,A,1503.71953,N,04947.84990,W,387.529,252.34,190120,,,D*7A
$GPGGA,160232.00,1503.71953,N,04947.84990,W,2,12,0.64,12527.9,M,-37.4,M,,*63
$GPRMC,160233.00,A,1503.68674,N,04947.95576,W,387.402,252.32,190120,,,D*73
$GPGGA,160233.00,1503.68674,N,04947.95576,W,2,12,0.64,12518.9,M,-37.4,M,,*68
$GPRMC,160234.00,A,1503.65396,N,04948.06154,W,387.239,252.32,190120,,,D*7F
$GPGGA,160234.00,1503.65396,N,04948.06154,W,2,12,0.64,12510.0,M,-37.4,M,,*6B
$GPRMC,160235.00,A,1503.62128,N,04948.16724,W,387.125,252.32,190120,,,D*70
$GPGGA,160235.00,1503.62128,N,04948.16724,W,2,12,0.64,12500.8,M,-37.4,M,,*63
$GPRMC,160236.00,A,1503.58859,N,04948.27293,W,387.018,252.28,190120,,,D*7A
$GPGGA,160236.00,1503.58859,N,04948.27293,W,2,12,0.64,12491.8,M,-37.5,M,,*65
$GPRMC,160237.00,A,1503.55574,N,04948.37864,W,386.795,252.28,190120,,,D*74
$GPGGA,160237.00,1503.55574,N,04948.37864,W,2,12,0.64,12482.8,M,-37.5,M,,*6A
$GPRMC,160238.00,A,1503.52290,N,04948.48427,W,386.699,252.29,190120,,,D*7E
$GPGGA,160238.00,1503.52290,N,04948.48427,W,2,12,0.64,12473.9,M,-37.5,M,,*63
$GPRMC,160239.00,A,1503.49028,N,04948.58988,W,386.454,252.32,190120,,,D*74
$GPGGA,160239.00,1503.49028,N,04948.58988,W,2,12,0.64,12464.6,M,-37.5,M,,*69
$GPRMC,160240.00,A,1503.45762,N,04948.69541,W,386.202,252.34,190120,,,D*77
$GPGGA,160240.00,1503.45762,N,04948.69541,W,2,12,0.70,12455.5,M,-37.5,M,,*6D
$GPRMC,160241.00,A,1503.42504,N,04948.80092,W,386.030,252.38,190120,,,D*70
$GPGGA,160241.00,1503.42504,N,04948.80092,W,2,12,0.64,12446.5,M,-37.5,M,,*62
$GPRMC,160242.00,A,1503.39264,N,04948.90636,W,385.885,252.39,190120,,,D*73
$GPGGA,160242.00,1503.39264,N,04948.90636,W,2,12,0.64,12437.1,M,-37.5,M,,*67
$GPRMC,160243.00,A,1503.36043,N,04949.01174,W,385.545,252.40,190120,,,D*7D
$GPGGA,160243.00,1503.36043,N,04949.01174,W,2,12,0.64,12427.4,M,-37.5,M,,*62
$GPRMC,160244.00,A,1503.32796,N,04949.11700,W,385.261,252.35,190120,,,D*76
$GPGGA,160244.00,1503.32796,N,04949.11700,W,2,12,0.64,12417.7,M,-37.5,M,,*6A
$GPRMC,160245.00,A,1503.29531,N,04949.22215,W,385.211,252.26,190120,,,D*76
$GPGGA,160245.00,1503.29531,N,04949.22215,W,2,12,0.64,12408.3,M,-37.5,M,,*65
$GPRMC,160246.00,A,1503.26259,N,04949.32730,W,385.268,252.14,190120,,,D*7F
$GPGGA,160246.00,1503.26259,N,04949.32730,W,2,12,0.64,12399.0,M,-37.5,M,,*6F
$GPRMC,160247.00,A,1503.22954,N,04949.43221,W,384.947,252.01,190120,,,D*7C
$GPGGA,160247.00,1503.22954,N,04949.43221,W,2,12,0.64,12388.8,M,-37.5,M,,*67
$GPRMC,160248.00,A,1503.19615,N,04949.53721,W,384.784,251.90,190120,,,D*7F
$GPGGA,160248.00,1503.19615,N,04949.53721,W,2,12,0.64,12379.4,M,-37.5,M,,*6C
$GPRMC,160249.00,A,1503.16258,N,04949.64210,W,385.695,251.65,190120,,,D*75
$GPGGA,160249.00,1503.16258,N,04949.64210,W,2,11,0.79,12370.1,M,-37.5,M,,*6F
$GPRMC,160250.00,A,1503.12923,N,04949.74655,W,384.221,251.77,190120,,,D*73
$GPGGA,160250.00,1503.12923,N,04949.74655,W,2,12,0.64,12360.4,M,-37.5,M,,*6B
$GPRMC,160251.00,A,1503.09598,N,04949.85124,W,384.004,251.70,190120,,,D*79
$GPGGA,160251.00,1503.09598,N,04949.85124,W,2,12,0.64,12350.8,M,-37.5,M,,*6C
$GPRMC,160252.00,A,1503.06265,N,04949.95554,W,382.883,251.66,190120,,,D*74
$GPGGA,160252.00,1503.06265,N,04949.95554,W,2,12,0.70,12341.3,M,-37.5,M,,*69
$GPRMC,160253.00,A,1503.02902,N,04950.05993,W,383.413,251.65,190120,,,D*7A
$GPGGA,160253.00,1503.02902,N,04950.05993,W,2,12,0.64,12331.6,M,-37.5,M,,*67
$GPRMC,160254.00,A,1502.99535,N,04950.16428,W,383.041,251.64,190120,,,D*7B
$GPGGA,160254.00,1502.99535,N,04950.16428,W,2,12,0.64,12322.0,M,-37.5,M,,*60
$GPRMC,160255.00,A,1502.96164,N,04950.26836,W,382.748,251.64,190120,,,D*7A
$GPGGA,160255.00,1502.96164,N,04950.26836,W,2,12,0.64,12312.8,M,-37.5,M,,*65
$GPRMC,160256.00,A,1502.92815,N,04950.37243,W,382.155,251.69,190120,,,D*7D
$GPGGA,160256.00,1502.92815,N,04950.37243,W,2,12,0.64,12303.2,M,-37.6,M,,*6C
$GPRMC,160257.00,A,1502.89465,N,04950.47642,W,381.822,251.74,190120,,,D*79
$GPGGA,160257.00,1502.89465,N,04950.47642,W,2,12,0.64,12293.5,M,-37.6,M,,*61
$GPRMC,160258.00,A,1502.86133,N,04950.58036,W,381.807,251.76,190120,,,D*71
$GPGGA,160258.00,1502.86133,N,04950.58036,W,2,12,0.70,12284.1,M,-37.6,M,,*6B
$GPRMC,160259.00,A,1502.82822,N,04950.68433,W,380.971,251.80,190120,,,D*77
$GPGGA,160259.00,1502.82822,N,04950.68433,W,2,12,0.69,12274.7,M,-37.6,M,,*64
$GPRMC,160300.00,A,1502.79527,N,04950.78805,W,380.554,251.84,190120,,,D*71
$GPGGA,160300.00,1502.79527,N,04950.78805,W,2,12,0.64,12264.6,M,-37.6,M,,*60
$GPRMC,160301.00,A,1502.76232,N,04950.89157,W,380.168,251.87,190120,,,D*74
$GPGGA,160301.00,1502.76232,N,04950.89157,W,2,12,0.64,12255.4,M,-37.6,M,,*6D
$GPRMC,160302.00,A,1502.72945,N,04950.99520,W,379.821,251.87,190120,,,D*7F
$GPGGA,160302.00,1502.72945,N,04950.99520,W,2,12,0.64,12245.1,M,-37.6,M,,*60
$GPRMC,160303.00,A,1502.69644,N,04951.09877,W,380.683,251.80,190120,,,D*7A
$GPGGA,160303.00,1502.69644,N,04951.09877,W,2,12,0.70,12235.9,M,-37.6,M,,*68
$GPRMC,160304.00,A,1502.66353,N,04951.20176,W,378.914,251.93,190120,,,D*76
$GPGGA,160304.00,1502.66353,N,04951.20176,W,2,12,0.64,12226.5,M,-37.6,M,,*6B
$GPRMC,160305.00,A,1502.63094,N,04951.30492,W,378.400,251.94,190120,,,D*7B
$GPGGA,160305.00,1502.63094,N,04951.30492,W,2,12,0.64,12217.0,M,-37.6,M,,*6E
$GPRMC,160306.00,A,1502.59818,N,04951.40791,W,378.074,251.98,190120,,,D*71
$GPGGA,160306.00,1502.59818,N,04951.40791,W,2,12,0.64,12207.1,M,-37.6,M,,*6F
$GPRMC,160307.00,A,1502.56573,N,04951.51085,W,377.706,251.94,190120,,,D*7C
$GPGGA,160307.00,1502.56573,N,04951.51085,W,2,12,0.64,12197.3,M,-37.6,M,,*6B
$GPRMC,160308.00,A,1502.53328,N,04951.61371,W,377.394,251.89,190120,,,D*76
$GPGGA,160308.00,1502.53328,N,04951.61371,W,2,12,0.64,12187.5,M,-37.6,M,,*65
$GPRMC,160309.00,A,1502.50062,N,04951.71656,W,377.050,251.79,190120,,,D*7C
$GPGGA,160309.00,1502.50062,N,04951.71656,W,2,12,0.64,12177.8,M,-37.6,M,,*69
$GPRMC,160310.00,A,1502.46766,N,04951.81933,W,376.711,251.68,190120,,,D*70
$GPGGA,160310.00,1502.46766,N,04951.81933,W,2,12,0.64,12167.8,M,-37.6,M,,*67
$GPRMC,160311.00,A,1502.43482,N,04951.92177,W,375.864,251.79,190120,,,D*79
$GPGGA,160311.00,1502.43482,N,04951.92177,W,2,11,0.79,12158.3,M,-37.6,M,,*68
$GPRMC,160312.00,A,1502.40164,N,04952.02410,W,376.070,251.42,190120,,,D*7C
$GPGGA,160312.00,1502.40164,N,04952.02410,W,2,12,0.64,12148.6,M,-37.6,M,,*60
$GPRMC,160313.00,A,1502.36820,N,04952.12608,W,375.800,251.33,190120,,,D*75
$GPGGA,160313.00,1502.36820,N,04952.12608,W,2,12,0.64,12138.9,M,-37.6,M,,*6B
$GPRMC,160314.00,A,1502.33457,N,04952.22805,W,375.512,251.25,190120,,,D*72
$GPGGA,160314.00,1502.33457,N,04952.22805,W,2,12,0.70,12129.3,M,-37.6,M,,*6A
$GPRMC,160315.00,A,1502.30087,N,04952.32989,W,375.263,251.24,190120,,,D*7D
$GPGGA,160315.00,1502.30087,N,04952.32989,W,2,12,0.64,12120.3,M,-37.6,M,,*69
$GPRMC,160316.00,A,1502.26723,N,04952.43157,W,374.723,251.18,190120,,,A*77
$GPGGA,160316.00,1502.26723,N,04952.43157,W,1,12,0.64,12110.4,M,-37.6,M,,*6E
$GPRMC,160317.00,A,1502.23349,N,04952.53331,W,374.212,251.15,190120,,,A*72
$GPGGA,160317.00,1502.23349,N,04952.53331,W,1,12,0.64,12100.2,M,-37.7,M,,*67
$GPRMC,160318.00,A,1502.19971,N,04952.63466,W,374.134,251.13,190120,,,A*72
$GPGGA,160318.00,1502.19971,N,04952.63466,W,1,12,0.64,12090.3,M,-37.7,M,,*6F
$GPRMC,160319.00,A,1502.16591,N,04952.73610,W,373.808,251.11,190120,,,A*7F
$GPGGA,160319.00,1502.16591,N,04952.73610,W,1,12,0.64,12080.5,M,-37.7,M,,*66
$GPRMC,160320.00,A,1502.13216,N,04952.83757,W,373.487,251.10,190120,,,A*7F
$GPGGA,160320.00,1502.13216,N,04952.83757,W,1,12,0.64,12070.4,M,-37.7,M,,*62
$GPRMC,160321.00,A,1502.09849,N,04952.93879,W,373.243,251.06,190120,,,A*7E
$GPGGA,160321.00,1502.09849,N,04952.93879,W,1,12,0.64,12060.3,M,-37.7,M,,*6C
$GPRMC,160322.00,A,1502.06473,N,04953.03996,W,372.992,251.02,190120,,,A*7D
$GPGGA,160322.00,1502.06473,N,04953.03996,W,1,12,0.64,12050.7,M,-37.7,M,,*6A
$GPRMC,160323.00,A,1502.03091,N,04953.14102,W,372.649,251.00,190120,,,A*79
$GPGGA,160323.00,1502.03091,N,04953.14102,W,1,12,0.64,12041.2,M,-37.7,M,,*60
$GPRMC,160324.00,A,1501.99708,N,04953.24205,W,372.517,250.93,190120,,,A*7D
$GPGGA,160324.00,1501.99708,N,04953.24205,W,1,12,0.64,12031.5,M,-37.7,M,,*67
$GPRMC,160325.00,A,1501.96321,N,04953.34286,W,371.646,250.89,190120,,,A*79
$GPGGA,160325.00,1501.96321,N,04953.34286,W,1,12,0.70,12022.8,M,-37.7,M,,*66
$GPRMC,160326.00,A,1501.92938,N,04953.44369,W,371.997,250.83,190120,,,A*72
$GPGGA,160326.00,1501.92938,N,04953.44369,W,1,12,0.64,12012.1,M,-37.7,M,,*6B
$GPRMC,160327.00,A,1501.89545,N,04953.54449,W,371.819,250.80,190120,,,A*7F
$GPGGA,160327.00,1501.89545,N,04953.54449,W,1,12,0.64,12002.7,M,-37.7,M,,*65
$GPRMC,160328.00,A,1501.86128,N,04953.64505,W,371.703,250.77,190120,,,A*76
$GPGGA,160328.00,1501.86128,N,04953.64505,W,1,12,0.64,11993.4,M,-37.7,M,,*61
$GPRMC,160329.00,A,1501.82722,N,04953.74566,W,371.505,250.75,190120,,,A*7D
$GPGGA,160329.00,1501.82722,N,04953.74566,W,1,12,0.64,11984.1,M,-37.7,M,,*6F
$GPRMC,160330.00,A,1501.79310,N,04953.84637,W,372.693,250.80,190120,,,A*79
$GPGGA,160330.00,1501.79310,N,04953.84637,W,1,12,0.67,11975.7,M,-37.7,M,,*65
$GPRMC,160331.00,A,1501.75885,N,04953.94676,W,371.033,250.68,190120,,,A*7E
$GPGGA,160331.00,1501.75885,N,04953.94676,W,1,12,0.64,11964.7,M,-37.7,M,,*68
$GPRMC,160332.00,A,1501.72457,N,04954.04738,W,370.941,250.64,190120,,,A*7D
$GPGGA,160332.00,1501.72457,N,04954.04738,W,1,12,0.64,11954.8,M,-37.7,M,,*66
$GPRMC,160333.00,A,1501.69034,N,04954.14758,W,370.862,250.59,190120,,,A*7E
$GPGGA,160333.00,1501.69034,N,04954.14758,W,1,12,0.64,11945.4,M,-37.7,M,,*67
$GPRMC,160334.00,A,1501.65612,N,04954.24763,W,370.814,250.57,190120,,,A*73
$GPGGA,160334.00,1501.65612,N,04954.24763,W,1,12,0.64,11935.6,M,-37.7,M,,*60
$GPRMC,160335.00,A,1501.62168,N,04954.34773,W,370.083,250.45,190120,,,A*7A
$GPGGA,160335.00,1501.62168,N,04954.34773,W,1,12,0.70,11926.1,M,-37.7,M,,*6C
$GPRMC,160336.00,A,1501.58752,N,04954.44784,W,370.593,250.53,190120,,,A*73
$GPGGA,160336.00,1501.58752,N,04954.44784,W,1,12,0.64,11915.9,M,-37.7,M,,*6B
$GPRMC,160337.00,A,1501.55294,N,04954.54768,W,370.477,250.49,190120,,,A*73
$GPGGA,160337.00,1501.55294,N,04954.54768,W,1,12,0.64,11906.5,M,-37.7,M,,*65
$GPRMC,160338.00,A,1501.51846,N,04954.64786,W,370.232,250.48,190120,,,A*78
$GPGGA,160338.00,1501.51846,N,04954.64786,W,1,12,0.64,11896.8,M,-37.8,M,,*62
$GPRMC,160339.00,A,1501.48398,N,04954.74793,W,370.277,250.45,190120,,,D*75
$GPGGA,160339.00,1501.48398,N,04954.74793,W,2,12,0.64,11887.9,M,-37.8,M,,*64
$GPRMC,160340.00,A,1501.44918,N,04954.84790,W,370.236,250.40,190120,,,D*79
$GPGGA,160340.00,1501.44918,N,04954.84790,W,2,12,0.64,11878.7,M,-37.8,M,,*66
$GPRMC,160341.00,A,1501.41451,N,04954.94786,W,370.248,250.36,190120,,,D*73
$GPGGA,160341.00,1501.41451,N,04954.94786,W,2,12,0.64,11869.7,M,-37.8,M,,*64
$GPRMC,160342.00,A,1501.37987,N,04955.04783,W,370.343,250.31,190120,,,D*77
$GPGGA,160342.00,1501.37987,N,04955.04783,W,2,12,0.64,11860.0,M,-37.8,M,,*63
$GPRMC,160343.00,A,1501.34503,N,04955.14784,W,370.442,250.28,190120,,,D*7D
$GPGGA,160343.00,1501.34503,N,04955.14784,W,2,12,0.64,11850.4,M,-37.8,M,,*60
$GPRMC,160344.00,A,1501.31016,N,04955.24774,W,370.504,250.25,190120,,,D*7C
$GPGGA,160344.00,1501.31016,N,04955.24774,W,2,12,0.64,11841.0,M,-37.8,M,,*6B
$GPRMC,160345.00,A,1501.27522,N,04955.34768,W,370.671,250.24,190120,,,D*74
$GPGGA,160345.00,1501.27522,N,04955.34768,W,2,12,0.64,11831.6,M,-37.8,M,,*62
$GPRMC,160346.00,A,1501.24031,N,04955.44761,W,370.746,250.24,190120,,,D*78
$GPGGA,160346.00,1501.24031,N,04955.44761,W,2,12,0.64,11822.0,M,-37.8,M,,*6F
$GPRMC,160347.00,A,1501.20533,N,04955.54760,W,371.018,250.21,190120,,,D*72
$GPGGA,160347.00,1501.20533,N,04955.54760,W,2,12,0.64,11812.3,M,-37.8,M,,*6D
$GPRMC,160348.00,A,1501.17029,N,04955.64766,W,371.101,250.19,190120,,,D*70
$GPGGA,160348.00,1501.17029,N,04955.64766,W,2,12,0.64,11802.6,M,-37.8,M,,*69
$GPRMC,160349.00,A,1501.13520,N,04955.74772,W,371.249,250.18,190120,,,D*73
$GPGGA,160349.00,1501.13520,N,04955.74772,W,2,12,0.64,11792.8,M,-37.8,M,,*6C
$GPRMC,160350.00,A,1501.10017,N,04955.84786,W,371.588,250.18,190120,,,D*77
$GPGGA,160350.00,1501.10017,N,04955.84786,W,2,12,0.64,11782.7,M,-37.8,M,,*6C
$GPRMC,160351.00,A,1501.06509,N,04955.94808,W,371.779,250.20,190120,,,D*74
$GPGGA,160351.00,1501.06509,N,04955.94808,W,2,12,0.64,11772.8,M,-37.8,M,,*68
$GPRMC,160352.00,A,1501.03001,N,04956.04841,W,371.991,250.21,190120,,,D*71
$GPGGA,160352.00,1501.03001,N,04956.04841,W,2,12,0.64,11763.1,M,-37.8,M,,*6D
$GPRMC,160353.00,A,1500.99496,N,04956.14880,W,372.266,250.25,190120,,,D*70
$GPGGA,160353.00,1500.99496,N,04956.14880,W,2,12,0.64,11753.6,M,-37.8,M,,*6C
$GPRMC,160354.00,A,1500.95997,N,04956.24927,W,372.455,250.27,190120,,,D*7C
$GPGGA,160354.00,1500.95997,N,04956.24927,W,2,12,0.64,11744.1,M,-37.8,M,,*65
$GPRMC,160355.00,A,1500.92499,N,04956.34981,W,372.832,250.28,190120,,,D*76
$GPGGA,160355.00,1500.92499,N,04956.34981,W,2,12,0.64,11734.8,M,-37.8,M,,*63
$GPRMC,160356.00,A,1500.88997,N,04956.45045,W,373.074,250.30,190120,,,D*78
$GPGGA,160356.00,1500.88997,N,04956.45045,W,2,12,0.64,11725.4,M,-37.8,M,,*63
$GPRMC,160357.00,A,1500.85495,N,04956.55120,W,373.417,250.31,190120,,,D*78
$GPGGA,160357.00,1500.85495,N,04956.55120,W,2,12,0.64,11716.1,M,-37.8,M,,*66
$GPRMC,160358.00,A,1500.81991,N,04956.65201,W,373.770,250.33,190120,,,D*79
$GPGGA,160358.00,1500.81991,N,04956.65201,W,2,12,0.64,11706.9,M,-37.8,M,,*6E
$GPRMC,160359.00,A,1500.78490,N,04956.75297,W,374.191,250.36,190120,,,D*77
$GPGGA,160359.00,1500.78490,N,04956.75297,W,2,12,0.64,11697.4,M,-37.9,M,,*6E
$GPRMC,160400.00,A,1500.74991,N,04956.85407,W,374.539,250.40,190120,,,D*7B
$GPGGA,160400.00,1500.74991,N,04956.85407,W,2,12,0.64,11688.0,M,-37.9,M,,*6F
$GPRMC,160401.00,A,1500.71498,N,04956.95528,W,374.913,250.45,190120,,,D*77
$GPGGA,160401.00,1500.71498,N,04956.95528,W,2,12,0.64,11678.3,M,-37.9,M,,*6E
$GPRMC,160402.00,A,1500.68008,N,04957.05661,W,375.351,250.51,190120,,,D*7F
$GPGGA,160402.00,1500.68008,N,04957.05661,W,2,12,0.64,11668.6,M,-37.9,M,,*6A
$GPRMC,160403.00,A,1500.64526,N,04957.15810,W,375.781,250.60,190120,,,D*79
$GPGGA,160403.00,1500.64526,N,04957.15810,W,2,12,0.64,11658.8,M,-37.9,M,,*6A
$GPRMC,160404.00,A,1500.61050,N,04957.25982,W,376.202,250.67,190120,,,D*7C
$GPGGA,160404.00,1500.61050,N,04957.25982,W,2,12,0.64,11649.0,M,-37.9,M,,*6D
$GPRMC,160405.00,A,1500.57580,N,04957.36163,W,376.675,250.71,190120,,,D*76
$GPGGA,160405.00,1500.57580,N,04957.36163,W,2,12,0.64,11639.2,M,-37.9,M,,*61
$GPRMC,160406.00,A,1500.54110,N,04957.46358,W,377.058,250.76,190120,,,D*79
$GPGGA,160406.00,1500.54110,N,04957.46358,W,2,12,0.64,11629.7,M,-37.9,M,,*65
$GPRMC,160407.00,A,1500.50646,N,04957.56570,W,377.482,250.82,190120,,,D*7D
$GPGGA,160407.00,1500.50646,N,04957.56570,W,2,12,0.64,11620.3,M,-37.9,M,,*64
$GPRMC,160408.00,A,1500.47191,N,04957.66795,W,377.886,250.89,190120,,,D*70
$GPGGA,160408.00,1500.47191,N,04957.66795,W,2,12,0.64,11611.1,M,-37.9,M,,*6A
$GPRMC,160409.00,A,1500.43748,N,04957.77036,W,378.261,250.97,190120,,,D*7A
$GPGGA,160409.00,1500.43748,N,04957.77036,W,2,12,0.64,11602.0,M,-37.9,M,,*60
$GPRMC,160410.00,A,1500.40318,N,04957.87291,W,378.681,251.05,190120,,,D*70
$GPGGA,160410.00,1500.40318,N,04957.87291,W,2,12,0.64,11592.9,M,-37.9,M,,*69
$GPRMC,160411.00,A,1500.36899,N,04957.97567,W,379.027,251.13,190120,,,D*71
$GPGGA,160411.00,1500.36899,N,04957.97567,W,2,12,0.64,11584.0,M,-37.9,M,,*6A
$GPRMC,160412.00,A,1500.33492,N,04958.07859,W,379.352,251.25,190120,,,D*72
$GPGGA,160412.00,1500.33492,N,04958.07859,W,2,12,0.67,11575.1,M,-37.9,M,,*61
$GPRMC,160413.00,A,1500.30092,N,04958.18165,W,379.760,251.25,190120,,,D*79
$GPGGA,160413.00,1500.30092,N,04958.18165,W,2,12,0.64,11565.8,M,-37.9,M,,*64
$GPRMC,160414.00,A,1500.26698,N,04958.28478,W,380.072,251.31,190120,,,D*78
$GPGGA,160414.00,1500.26698,N,04958.28478,W,2,12,0.64,11556.3,M,-37.9,M,,*69
$GPRMC,160415.00,A,1500.23290,N,04958.38800,W,380.447,251.35,190120,,,D*74
$GPGGA,160415.00,1500.23290,N,04958.38800,W,2,12,0.64,11546.8,M,-37.9,M,,*69
$GPRMC,160416.00,A,1500.19893,N,04958.49145,W,381.427,251.31,190120,,,D*7A
$GPGGA,160416.00,1500.19893,N,04958.49145,W,2,11,0.76,11536.7,M,-37.9,M,,*6C
$GPRMC,160417.00,A,1500.16510,N,04958.59480,W,380.926,251.44,190120,,,D*70
$GPGGA,160417.00,1500.16510,N,04958.59480,W,2,12,0.64,11527.3,M,-37.9,M,,*6D
$GPRMC,160418.00,A,1500.13135,N,04958.69827,W,381.113,251.48,190120,,,D*78
$GPGGA,160418.00,1500.13135,N,04958.69827,W,2,12,0.64,11517.2,M,-37.9,M,,*64
$GPRMC,160419.00,A,1500.09758,N,04958.80203,W,382.370,251.50,190120,,,D*79
$GPGGA,160419.00,1500.09758,N,04958.80203,W,2,12,0.70,11507.6,M,-37.9,M,,*68
$GPRMC,160420.00,A,1500.06392,N,04958.90567,W,381.717,251.57,190120,,,D*7B
$GPGGA,160420.00,1500.06392,N,04958.90567,W,2,12,0.64,11498.4,M,-38.0,M,,*6D
$GPRMC,160421.00,A,1500.03018,N,04959.00958,W,381.885,251.59,190120,,,D*7C
$GPGGA,160421.00,1500.03018,N,04959.00958,W,2,12,0.64,11489.0,M,-38.0,M,,*64
$GPRMC,160422.00,A,1459.99670,N,04959.11349,W,382.129,251.64,190120,,,D*71
$GPGGA,160422.00,1459.99670,N,04959.11349,W,2,12,0.64,11479.4,M,-38.0,M,,*60
$GPRMC,160423.00,A,1459.96331,N,04959.21759,W,382.323,251.70,190120,,,D*74
$GPGGA,160423.00,1459.96331,N,04959.21759,W,2,12,0.64,11469.9,M,-38.0,M,,*64
$GPRMC,160424.00,A,1459.93001,N,04959.32149,W,382.513,251.75,190120,,,D*73
$GPGGA,160424.00,1459.93001,N,04959.32149,W,2,12,0.64,11460.0,M,-38.0,M,,*63
$GPRMC,160425.00,A,1459.89659,N,04959.42559,W,382.711,251.78,190120,,,D*7D
$GPGGA,160425.00,1459.89659,N,04959.42559,W,2,12,0.64,11450.2,M,-38.0,M,,*61
$GPRMC,160426.00,A,1459.86320,N,04959.52977,W,382.904,251.81,190120,,,D*77
$GPGGA,160426.00,1459.86320,N,04959.52977,W,2,12,0.64,11440.6,M,-38.0,M,,*62
$GPRMC,160427.00,A,1459.82993,N,04959.63415,W,383.059,251.86,190120,,,D*7C
$GPGGA,160427.00,1459.82993,N,04959.63415,W,2,12,0.64,11430.9,M,-38.0,M,,*66
$GPRMC,160428.00,A,1459.79672,N,04959.73853,W,383.299,251.88,190120,,,D*78
$GPGGA,160428.00,1459.79672,N,04959.73853,W,2,12,0.64,11420.9,M,-38.0,M,,*63
$GPRMC,160429.00,A,1459.76352,N,04959.84298,W,383.388,251.91,190120,,,D*7D
$GPGGA,160429.00,1459.76352,N,04959.84298,W,2,12,0.64,11411.0,M,-38.0,M,,*64
$GPRMC,160430.00,A,1459.73034,N,04959.94746,W,383.556,251.93,190120,,,D*73
$GPGGA,160430.00,1459.73034,N,04959.94746,W,2,12,0.64,11401.2,M,-38.0,M,,*6E
$GPRMC,160431.00,A,1459.69724,N,05000.05200,W,383.617,251.99,190120,,,D*78
$GPGGA,160431.00,1459.69724,N,05000.05200,W,2,12,0.64,11391.5,M,-38.0,M,,*60
$GPRMC,160432.00,A,1459.66422,N,05000.15656,W,383.779,252.01,190120,,,D*7C
$GPGGA,160432.00,1459.66422,N,05000.15656,W,2,12,0.64,11381.9,M,-38.0,M,,*62
$GPRMC,160433.00,A,1459.63127,N,05000.26119,W,383.838,252.06,190120,,,D*79
$GPGGA,160433.00,1459.63127,N,05000.26119,W,2,12,0.64,11372.3,M,-38.0,M,,*6C
$GPRMC,160434.00,A,1459.59835,N,05000.36588,W,383.866,252.10,190120,,,D*7C
$GPGGA,160434.00,1459.59835,N,05000.36588,W,2,12,0.64,11363.1,M,-38.0,M,,*67
$GPRMC,160435.00,A,1459.56552,N,05000.47058,W,383.895,252.12,190120,,,D*7E
$GPGGA,160435.00,1459.56552,N,05000.47058,W,2,12,0.64,11353.8,M,-38.0,M,,*61
$GPRMC,160436.00,A,1459.53273,N,05000.57530,W,383.921,252.10,190120,,,D*7A
$GPGGA,160436.00,1459.53273,N,05000.57530,W,2,12,0.64,11344.4,M,-38.0,M,,*63
$GPRMC,160437.00,A,1459.49984,N,05000.68003,W,383.880,252.13,190120,,,D*73
$GPGGA,160437.00,1459.49984,N,05000.68003,W,2,12,0.64,11335.1,M,-38.0,M,,*60
$GPRMC,160438.00,A,1459.46704,N,05000.78474,W,383.873,252.16,190120,,,D*79
$GPGGA,160438.00,1459.46704,N,05000.78474,W,2,12,0.64,11325.6,M,-38.0,M,,*65
$GPRMC,160439.00,A,1459.43424,N,05000.88948,W,383.775,252.18,190120,,,D*76
$GPGGA,160439.00,1459.43424,N,05000.88948,W,2,12,0.64,11315.8,M,-38.0,M,,*60
$GPRMC,160440.00,A,1459.40153,N,05000.99420,W,383.607,252.23,190120,,,D*71
$GPGGA,160440.00,1459.40153,N,05000.99420,W,2,12,0.64,11305.8,M,-38.0,M,,*6A
$GPRMC,160441.00,A,1459.36890,N,05001.09894,W,383.604,252.24,190120,,,D*78
$GPGGA,160441.00,1459.36890,N,05001.09894,W,2,12,0.64,11295.7,M,-38.0,M,,*60
$GPRMC,160442.00,A,1459.33634,N,05001.20366,W,383.443,252.27,190120,,,D*71
$GPGGA,160442.00,1459.33634,N,05001.20366,W,2,12,0.64,11285.7,M,-38.0,M,,*6A
$GPRMC,160443.00,A,1459.30381,N,05001.30837,W,383.204,252.28,190120,,,D*7C
$GPGGA,160443.00,1459.30381,N,05001.30837,W,2,12,0.64,11275.8,M,-38.0,M,,*6D
$GPRMC,160444.00,A,1459.27137,N,05001.41300,W,383.036,252.29,190120,,,D*79
$GPGGA,160444.00,1459.27137,N,05001.41300,W,2,12,0.64,11265.9,M,-38.0,M,,*6A
$GPRMC,160445.00,A,1459.23894,N,05001.51759,W,382.811,252.33,190120,,,D*72
$GPGGA,160445.00,1459.23894,N,05001.51759,W,2,12,0.64,11256.2,M,-38.0,M,,*6D
$GPRMC,160446.00,A,1459.20654,N,05001.62211,W,382.540,252.32,190120,,,D*71
$GPGGA,160446.00,1459.20654,N,05001.62211,W,2,12,0.64,11246.1,M,-38.0,M,,*64
$GPRMC,160447.00,A,1459.17413,N,05001.72656,W,382.338,252.32,190120,,,D*7A
$GPGGA,160447.00,1459.17413,N,05001.72656,W,2,12,0.64,11236.4,M,-38.0,M,,*64
$GPRMC,160448.00,A,1459.14173,N,05001.83097,W,382.125,252.28,190120,,,D*75
$GPGGA,160448.00,1459.14173,N,05001.83097,W,2,12,0.64,11226.6,M,-38.0,M,,*6D
$GPRMC,160449.00,A,1459.10933,N,05001.93530,W,381.896,252.27,190120,,,D*78
$GPGGA,160449.00,1459.10933,N,05001.93530,W,2,12,0.64,11216.9,M,-38.0,M,,*61
$GPRMC,160450.00,A,1459.07699,N,05002.03956,W,381.582,252.28,190120,,,D*78
$GPGGA,160450.00,1459.07699,N,05002.03956,W,2,12,0.64,11207.4,M,-38.0,M,,*6B
$GPRMC,160451.00,A,1459.04460,N,05002.14372,W,381.450,252.27,190120,,,D*75
$GPGGA,160451.00,1459.04460,N,05002.14372,W,2,12,0.64,11198.0,M,-38.0,M,,*66
$GPRMC,160452.00,A,1459.01226,N,05002.24778,W,381.131,252.28,190120,,,D*77
$GPGGA,160452.00,1459.01226,N,05002.24778,W,2,12,0.64,11188.5,M,-38.0,M,,*6D
$GPRMC,160453.00,A,1458.97996,N,05002.35177,W,380.948,252.30,190120,,,D*7F
$GPGGA,160453.00,1458.97996,N,05002.35177,W,2,12,0.64,11178.6,M,-38.0,M,,*67
$GPRMC,160454.00,A,1458.94770,N,05002.45573,W,380.841,252.29,190120,,,D*7A
$GPGGA,160454.00,1458.94770,N,05002.45573,W,2,12,0.64,11168.8,M,-38.0,M,,*6D
$GPRMC,160455.00,A,1458.91546,N,05002.55967,W,380.526,252.33,190120,,,D*76
$GPGGA,160455.00,1458.91546,N,05002.55967,W,2,12,0.64,11158.9,M,-38.0,M,,*64
$GPRMC,160456.00,A,1458.88326,N,05002.66359,W,380.324,252.33,190120,,,D*7E
$GPGGA,160456.00,1458.88326,N,05002.66359,W,2,12,0.64,11149.1,M,-38.0,M,,*60
$GPRMC,160457.00,A,1458.85113,N,05002.76746,W,380.139,252.33,190120,,,D*73
$GPGGA,160457.00,1458.85113,N,05002.76746,W,2,12,0.64,11139.0,M,-38.0,M,,*65
$GPRMC,160458.00,A,1458.81904,N,05002.87129,W,380.062,252.37,190120,,,D*7C
$GPGGA,160458.00,1458.81904,N,05002.87129,W,2,12,0.64,11129.1,M,-38.1,M,,*60
$GPRMC,160459.00,A,1458.78703,N,05002.97505,W,379.817,252.40,190120,,,D*75
$GPGGA,160459.00,1458.78703,N,05002.97505,W,2,12,0.64,11119.2,M,-38.1,M,,*65
$GPRMC,160500.00,A,1458.75499,N,05003.07883,W,379.903,252.39,190120,,,D*74
$GPGGA,160500.00,1458.75499,N,05003.07883,W,2,12,0.64,11109.4,M,-38.1,M,,*69
$GPRMC,160501.00,A,1458.72291,N,05003.18262,W,379.826,252.41,190120,,,D*7E
$GPGGA,160501.00,1458.72291,N,05003.18262,W,2,12,0.64,11099.8,M,-38.1,M,,*6E
$GPRMC,160502.00,A,1458.69082,N,05003.28641,W,379.875,252.39,190120,,,D*78
